[
  {
    "dockingId": 1,
    "name": "Oakridge",
    "city": "Sicaya",
    "bikes": 142,
    "capacity": 166,
    "active": true,
    "lat": -12.0169195,
    "lng": -75.2799884
  },
  {
    "dockingId": 2,
    "name": "Montana",
    "city": "Biruinţa",
    "bikes": 189,
    "capacity": 190,
    "active": false,
    "lat": 48.413703,
    "lng": 27.471753
  },
  {
    "dockingId": 3,
    "name": "Bellgrove",
    "city": "Nonggunong",
    "bikes": 185,
    "capacity": 199,
    "active": true,
    "lat": -7.0777168,
    "lng": 114.3489996
  },
  {
    "dockingId": 4,
    "name": "Manitowish",
    "city": "Ankola",
    "bikes": 72,
    "capacity": 162,
    "active": false,
    "lat": -7.3071,
    "lng": 107.1272
  },
  {
    "dockingId": 5,
    "name": "Fulton",
    "city": "Lufang",
    "bikes": 139,
    "capacity": 182,
    "active": true,
    "lat": 22.919228,
    "lng": 115.652151
  },
  {
    "dockingId": 6,
    "name": "Clemons",
    "city": "Santa Rita",
    "bikes": 134,
    "capacity": 178,
    "active": false,
    "lat": -17.9808139,
    "lng": -63.3697226
  },
  {
    "dockingId": 7,
    "name": "Oak Valley",
    "city": "Badean",
    "bikes": 73,
    "capacity": 118,
    "active": true,
    "lat": -7.9199459,
    "lng": 113.8138552
  },
  {
    "dockingId": 8,
    "name": "Anniversary",
    "city": "Nerópolis",
    "bikes": 199,
    "capacity": 200,
    "active": false,
    "lat": -16.4078661,
    "lng": -49.1828385
  },
  {
    "dockingId": 9,
    "name": "New Castle",
    "city": "Baru Timur",
    "bikes": 38,
    "capacity": 148,
    "active": true,
    "lat": -2.8534379,
    "lng": 108.2941031
  },
  {
    "dockingId": 10,
    "name": "Roxbury",
    "city": "Pattani",
    "bikes": 70,
    "capacity": 126,
    "active": true,
    "lat": 7.1949432,
    "lng": 100.5905788
  },
  {
    "dockingId": 11,
    "name": "Superior",
    "city": "Houston",
    "bikes": 122,
    "capacity": 161,
    "active": false,
    "lat": 29.6252177,
    "lng": -95.2208569
  },
  {
    "dockingId": 12,
    "name": "Manufacturers",
    "city": "Placetas",
    "bikes": 124,
    "capacity": 188,
    "active": true,
    "lat": 22.3179093,
    "lng": -79.6558242
  },
  {
    "dockingId": 13,
    "name": "Di Loreto",
    "city": "Chợ Mới",
    "bikes": 89,
    "capacity": 190,
    "active": true,
    "lat": 10.4825247,
    "lng": 105.4771084
  },
  {
    "dockingId": 14,
    "name": "Hoffman",
    "city": "Svetlyy Yar",
    "bikes": 150,
    "capacity": 195,
    "active": false,
    "lat": 48.4790559,
    "lng": 44.7808312
  },
  {
    "dockingId": 15,
    "name": "Homewood",
    "city": "Potolo",
    "bikes": 100,
    "capacity": 103,
    "active": true,
    "lat": -19.0153937,
    "lng": -65.5366243
  },
  {
    "dockingId": 16,
    "name": "Meadow Valley",
    "city": "Bornu Yassu",
    "bikes": 112,
    "capacity": 141,
    "active": true,
    "lat": 12.2711071,
    "lng": 12.5807242
  },
  {
    "dockingId": 17,
    "name": "Westerfield",
    "city": "Baini",
    "bikes": 43,
    "capacity": 154,
    "active": true,
    "lat": 23.063746,
    "lng": 112.836668
  },
  {
    "dockingId": 18,
    "name": "Eastlawn",
    "city": "Oliveira",
    "bikes": 3,
    "capacity": 84,
    "active": true,
    "lat": 40.8245332,
    "lng": -8.0435522
  },
  {
    "dockingId": 19,
    "name": "Kenwood",
    "city": "São José dos Pinhais",
    "bikes": 190,
    "capacity": 200,
    "active": false,
    "lat": -25.5318354,
    "lng": -49.2035722
  },
  {
    "dockingId": 20,
    "name": "Pleasure",
    "city": "Tianyi",
    "bikes": 81,
    "capacity": 123,
    "active": false,
    "lat": 22.278214,
    "lng": 114.182575
  },
  {
    "dockingId": 21,
    "name": "Macpherson",
    "city": "Morazán",
    "bikes": 8,
    "capacity": 41,
    "active": true,
    "lat": 15.3179065,
    "lng": -87.603826
  },
  {
    "dockingId": 22,
    "name": "Blue Bill Park",
    "city": "Owen Sound",
    "bikes": 75,
    "capacity": 156,
    "active": false,
    "lat": 44.57629,
    "lng": -80.9206653
  },
  {
    "dockingId": 23,
    "name": "Prentice",
    "city": "Nemyriv",
    "bikes": 22,
    "capacity": 95,
    "active": true,
    "lat": 48.9749521,
    "lng": 28.8474081
  },
  {
    "dockingId": 24,
    "name": "Bunting",
    "city": "Batur Kidul",
    "bikes": 100,
    "capacity": 188,
    "active": true,
    "lat": -7.2171628,
    "lng": 109.826069
  },
  {
    "dockingId": 25,
    "name": "Dahle",
    "city": "Namp’o",
    "bikes": 184,
    "capacity": 190,
    "active": false,
    "lat": 38.7522606,
    "lng": 125.3246769
  },
  {
    "dockingId": 26,
    "name": "Claremont",
    "city": "Nazir Town",
    "bikes": 33,
    "capacity": 114,
    "active": true,
    "lat": 31.5064623,
    "lng": 74.3268113
  },
  {
    "dockingId": 27,
    "name": "Weeping Birch",
    "city": "Mozdok",
    "bikes": 73,
    "capacity": 175,
    "active": true,
    "lat": 43.7454199,
    "lng": 44.6830668
  },
  {
    "dockingId": 28,
    "name": "Lawn",
    "city": "Gusong",
    "bikes": 77,
    "capacity": 148,
    "active": true,
    "lat": 24.025746,
    "lng": 108.355335
  },
  {
    "dockingId": 29,
    "name": "La Follette",
    "city": "Tagoloan",
    "bikes": 9,
    "capacity": 168,
    "active": false,
    "lat": 8.5243626,
    "lng": 124.757617
  },
  {
    "dockingId": 30,
    "name": "Rowland",
    "city": "Dadu",
    "bikes": 22,
    "capacity": 122,
    "active": true,
    "lat": 26.732065,
    "lng": 67.786348
  },
  {
    "dockingId": 31,
    "name": "Crownhardt",
    "city": "Darband",
    "bikes": 144,
    "capacity": 174,
    "active": false,
    "lat": 38.779525,
    "lng": 70.0979491
  },
  {
    "dockingId": 32,
    "name": "Hoepker",
    "city": "Melchor Ocampo",
    "bikes": 30,
    "capacity": 189,
    "active": true,
    "lat": 19.710125,
    "lng": -99.1400807
  },
  {
    "dockingId": 33,
    "name": "Johnson",
    "city": "Jazovo",
    "bikes": 71,
    "capacity": 146,
    "active": false,
    "lat": 45.8987694,
    "lng": 20.2325754
  },
  {
    "dockingId": 34,
    "name": "Mockingbird",
    "city": "Crateús",
    "bikes": 68,
    "capacity": 137,
    "active": false,
    "lat": -5.178204,
    "lng": -40.6695522
  },
  {
    "dockingId": 35,
    "name": "Trailsway",
    "city": "Uddevalla",
    "bikes": 51,
    "capacity": 174,
    "active": false,
    "lat": 58.3505986,
    "lng": 11.9490108
  },
  {
    "dockingId": 36,
    "name": "Gateway",
    "city": "Ulsan",
    "bikes": 125,
    "capacity": 133,
    "active": false,
    "lat": 35.5383773,
    "lng": 129.3113596
  },
  {
    "dockingId": 37,
    "name": "Steensland",
    "city": "Amphoe Sikhiu",
    "bikes": 198,
    "capacity": 198,
    "active": true,
    "lat": 14.8881276,
    "lng": 101.7187284
  },
  {
    "dockingId": 38,
    "name": "Dennis",
    "city": "Daigo",
    "bikes": 116,
    "capacity": 163,
    "active": false,
    "lat": 37.8336508,
    "lng": 140.557325
  },
  {
    "dockingId": 39,
    "name": "Haas",
    "city": "Can-asujan",
    "bikes": 199,
    "capacity": 199,
    "active": false,
    "lat": 10.1253323,
    "lng": 123.6666432
  },
  {
    "dockingId": 40,
    "name": "3rd",
    "city": "Guinabsan",
    "bikes": 10,
    "capacity": 140,
    "active": false,
    "lat": 8.9085671,
    "lng": 125.4008484
  },
  {
    "dockingId": 41,
    "name": "Bowman",
    "city": "Kradinan",
    "bikes": 84,
    "capacity": 110,
    "active": false,
    "lat": -7.7995142,
    "lng": 111.5438491
  },
  {
    "dockingId": 42,
    "name": "Roth",
    "city": "Liuzikou",
    "bikes": 180,
    "capacity": 183,
    "active": false,
    "lat": 39.876176,
    "lng": 117.355421
  },
  {
    "dockingId": 43,
    "name": "Macpherson",
    "city": "Kwakoa",
    "bikes": 53,
    "capacity": 75,
    "active": false,
    "lat": -3.7688094,
    "lng": 37.7144645
  },
  {
    "dockingId": 44,
    "name": "Maple",
    "city": "Al Karāmah",
    "bikes": 133,
    "capacity": 168,
    "active": true,
    "lat": 35.8679731,
    "lng": 39.276505
  },
  {
    "dockingId": 45,
    "name": "Rigney",
    "city": "Cipinang",
    "bikes": 104,
    "capacity": 141,
    "active": true,
    "lat": -6.2074293,
    "lng": 106.8915948
  },
  {
    "dockingId": 46,
    "name": "Linden",
    "city": "Bicurga",
    "bikes": 159,
    "capacity": 178,
    "active": true,
    "lat": 1.5837191,
    "lng": 10.4705682
  },
  {
    "dockingId": 47,
    "name": "Corben",
    "city": "Starigrad",
    "bikes": 84,
    "capacity": 163,
    "active": true,
    "lat": 44.7984547,
    "lng": 14.8829285
  },
  {
    "dockingId": 48,
    "name": "Vernon",
    "city": "Buenavista",
    "bikes": 89,
    "capacity": 95,
    "active": false,
    "lat": 19.6267726,
    "lng": -99.2993504
  },
  {
    "dockingId": 49,
    "name": "Lotheville",
    "city": "Novyy Svit",
    "bikes": 19,
    "capacity": 130,
    "active": true,
    "lat": 44.829819,
    "lng": 34.915084
  },
  {
    "dockingId": 50,
    "name": "Miller",
    "city": "Nida",
    "bikes": 9,
    "capacity": 133,
    "active": false,
    "lat": 55.317303,
    "lng": 21.017718
  },
  {
    "dockingId": 51,
    "name": "Di Loreto",
    "city": "Dasht-e Lati",
    "bikes": 1,
    "capacity": 83,
    "active": true,
    "lat": 32.3295438,
    "lng": 49.0943433
  },
  {
    "dockingId": 52,
    "name": "Northland",
    "city": "Kembangan",
    "bikes": 17,
    "capacity": 68,
    "active": false,
    "lat": -6.1912334,
    "lng": 106.742319
  },
  {
    "dockingId": 53,
    "name": "Southridge",
    "city": "Jinqiao",
    "bikes": 32,
    "capacity": 98,
    "active": true,
    "lat": 31.266133,
    "lng": 121.611248
  },
  {
    "dockingId": 54,
    "name": "Summer Ridge",
    "city": "Ordóñez",
    "bikes": 192,
    "capacity": 195,
    "active": false,
    "lat": -33.1416441,
    "lng": -64.3600342
  },
  {
    "dockingId": 55,
    "name": "Morrow",
    "city": "Vineuil",
    "bikes": 14,
    "capacity": 156,
    "active": false,
    "lat": 47.581201,
    "lng": 1.375111
  },
  {
    "dockingId": 56,
    "name": "Washington",
    "city": "Isla",
    "bikes": 118,
    "capacity": 170,
    "active": false,
    "lat": 14.7059893,
    "lng": 120.9500035
  },
  {
    "dockingId": 57,
    "name": "Manufacturers",
    "city": "Itamarandiba",
    "bikes": 187,
    "capacity": 192,
    "active": false,
    "lat": -17.857298,
    "lng": -42.8583915
  },
  {
    "dockingId": 58,
    "name": "Sutteridge",
    "city": "Krajan Atas Suger Lor",
    "bikes": 124,
    "capacity": 130,
    "active": false,
    "lat": -8.0650276,
    "lng": 113.8011498
  },
  {
    "dockingId": 59,
    "name": "Stoughton",
    "city": "Comodoro Rivadavia",
    "bikes": 141,
    "capacity": 142,
    "active": false,
    "lat": -45.8405005,
    "lng": -67.4686475
  },
  {
    "dockingId": 60,
    "name": "Nevada",
    "city": "Sawahan",
    "bikes": 108,
    "capacity": 126,
    "active": true,
    "lat": -7.2630131,
    "lng": 112.7211714
  },
  {
    "dockingId": 61,
    "name": "Annamark",
    "city": "Buga",
    "bikes": 157,
    "capacity": 185,
    "active": true,
    "lat": 3.8785364,
    "lng": -76.2981163
  },
  {
    "dockingId": 62,
    "name": "Delaware",
    "city": "Annau",
    "bikes": 21,
    "capacity": 148,
    "active": false,
    "lat": 37.9059243,
    "lng": 58.4972596
  },
  {
    "dockingId": 63,
    "name": "4th",
    "city": "Motge",
    "bikes": 166,
    "capacity": 196,
    "active": true,
    "lat": 34.0202277,
    "lng": -117.6896683
  },
  {
    "dockingId": 64,
    "name": "Dwight",
    "city": "Viligili",
    "bikes": 127,
    "capacity": 163,
    "active": true,
    "lat": 0.7573413,
    "lng": 73.434227
  },
  {
    "dockingId": 65,
    "name": "Eastlawn",
    "city": "San Luis",
    "bikes": 107,
    "capacity": 199,
    "active": false,
    "lat": 15.1249413,
    "lng": -88.4415998
  },
  {
    "dockingId": 66,
    "name": "Bluejay",
    "city": "Liangyaping",
    "bikes": 21,
    "capacity": 100,
    "active": true,
    "lat": 30.674362,
    "lng": 107.803911
  },
  {
    "dockingId": 67,
    "name": "Dixon",
    "city": "Donskoye",
    "bikes": 103,
    "capacity": 188,
    "active": true,
    "lat": 52.6130327,
    "lng": 38.9743917
  },
  {
    "dockingId": 68,
    "name": "Hansons",
    "city": "Chhāgalnāiya",
    "bikes": 40,
    "capacity": 167,
    "active": false,
    "lat": 23.0386278,
    "lng": 91.5184418
  },
  {
    "dockingId": 69,
    "name": "Oxford",
    "city": "Smarhon’",
    "bikes": 142,
    "capacity": 144,
    "active": true,
    "lat": 54.4762327,
    "lng": 26.3981493
  },
  {
    "dockingId": 70,
    "name": "Maple",
    "city": "Nancy",
    "bikes": 176,
    "capacity": 186,
    "active": false,
    "lat": 48.689836,
    "lng": 6.17445
  },
  {
    "dockingId": 71,
    "name": "Dawn",
    "city": "Castro Barros",
    "bikes": 189,
    "capacity": 196,
    "active": false,
    "lat": -32.9979844,
    "lng": -60.6298078
  },
  {
    "dockingId": 72,
    "name": "Dakota",
    "city": "Banjeru",
    "bikes": 111,
    "capacity": 176,
    "active": true,
    "lat": -6.9988,
    "lng": 113.9631
  },
  {
    "dockingId": 73,
    "name": "Weeping Birch",
    "city": "Wañgan",
    "bikes": 84,
    "capacity": 194,
    "active": false,
    "lat": 7.1760285,
    "lng": 125.4423957
  },
  {
    "dockingId": 74,
    "name": "Novick",
    "city": "Qiaonan",
    "bikes": 191,
    "capacity": 194,
    "active": false,
    "lat": 22.925131,
    "lng": 113.3681177
  },
  {
    "dockingId": 75,
    "name": "Heffernan",
    "city": "Olocuilta",
    "bikes": 77,
    "capacity": 139,
    "active": true,
    "lat": 13.5681668,
    "lng": -89.1158008
  },
  {
    "dockingId": 76,
    "name": "Elgar",
    "city": "Chinú",
    "bikes": 174,
    "capacity": 190,
    "active": true,
    "lat": 9.0039801,
    "lng": -75.3645369
  },
  {
    "dockingId": 77,
    "name": "Milwaukee",
    "city": "Phù Cát",
    "bikes": 152,
    "capacity": 152,
    "active": false,
    "lat": 14.0134002,
    "lng": 109.0547476
  },
  {
    "dockingId": 78,
    "name": "Surrey",
    "city": "Bronx",
    "bikes": 164,
    "capacity": 172,
    "active": false,
    "lat": 40.864318,
    "lng": -73.7977928
  },
  {
    "dockingId": 79,
    "name": "Arapahoe",
    "city": "Pontang Tengah",
    "bikes": 97,
    "capacity": 119,
    "active": false,
    "lat": -8.3464,
    "lng": 113.6376
  },
  {
    "dockingId": 80,
    "name": "Cherokee",
    "city": "Tandil",
    "bikes": 65,
    "capacity": 187,
    "active": false,
    "lat": -34.6645787,
    "lng": -58.5055758
  },
  {
    "dockingId": 81,
    "name": "Melrose",
    "city": "Beaumont",
    "bikes": 143,
    "capacity": 188,
    "active": false,
    "lat": 30.080174,
    "lng": -94.1265562
  },
  {
    "dockingId": 82,
    "name": "Kenwood",
    "city": "Sikasso",
    "bikes": 94,
    "capacity": 152,
    "active": false,
    "lat": 11.3223834,
    "lng": -5.6983979
  },
  {
    "dockingId": 83,
    "name": "Dwight",
    "city": "Bretaña",
    "bikes": 100,
    "capacity": 196,
    "active": false,
    "lat": -5.266667,
    "lng": -74.283333
  },
  {
    "dockingId": 84,
    "name": "Pierstorff",
    "city": "Secunda",
    "bikes": 48,
    "capacity": 71,
    "active": true,
    "lat": -26.5157792,
    "lng": 29.1913918
  },
  {
    "dockingId": 85,
    "name": "Redwing",
    "city": "Changshu City",
    "bikes": 49,
    "capacity": 194,
    "active": false,
    "lat": 31.654375,
    "lng": 120.752481
  },
  {
    "dockingId": 86,
    "name": "Dryden",
    "city": "Antipino",
    "bikes": 54,
    "capacity": 127,
    "active": false,
    "lat": 58.9918209,
    "lng": 55.1890813
  },
  {
    "dockingId": 87,
    "name": "Maple Wood",
    "city": "Jiangqiao",
    "bikes": 25,
    "capacity": 28,
    "active": true,
    "lat": 31.238854,
    "lng": 121.331694
  },
  {
    "dockingId": 88,
    "name": "Jana",
    "city": "West Hartford",
    "bikes": 191,
    "capacity": 196,
    "active": true,
    "lat": 41.76,
    "lng": -72.74
  },
  {
    "dockingId": 89,
    "name": "Morrow",
    "city": "Warungtanjung",
    "bikes": 54,
    "capacity": 173,
    "active": false,
    "lat": 3.5053306,
    "lng": 98.6783333
  },
  {
    "dockingId": 90,
    "name": "High Crossing",
    "city": "Noyemberyan",
    "bikes": 164,
    "capacity": 196,
    "active": true,
    "lat": 41.1718057,
    "lng": 44.9946631
  },
  {
    "dockingId": 91,
    "name": "Laurel",
    "city": "Sidamulya Satu",
    "bikes": 15,
    "capacity": 50,
    "active": false,
    "lat": -6.90572,
    "lng": 109.01489
  },
  {
    "dockingId": 92,
    "name": "Amoth",
    "city": "Mpika",
    "bikes": 56,
    "capacity": 96,
    "active": true,
    "lat": -11.8280231,
    "lng": 31.4513314
  },
  {
    "dockingId": 93,
    "name": "Main",
    "city": "Łobodno",
    "bikes": 84,
    "capacity": 131,
    "active": false,
    "lat": 50.8885079,
    "lng": 19.0438326
  },
  {
    "dockingId": 94,
    "name": "Northport",
    "city": "Zhangaqorghan",
    "bikes": 110,
    "capacity": 167,
    "active": true,
    "lat": 43.915,
    "lng": 67.24806
  },
  {
    "dockingId": 95,
    "name": "Dixon",
    "city": "Changyuan",
    "bikes": 151,
    "capacity": 198,
    "active": false,
    "lat": 35.201548,
    "lng": 114.668936
  },
  {
    "dockingId": 96,
    "name": "Lukken",
    "city": "Vayk’",
    "bikes": 110,
    "capacity": 160,
    "active": false,
    "lat": 39.6941363,
    "lng": 45.4592782
  },
  {
    "dockingId": 97,
    "name": "Charing Cross",
    "city": "Sunzhuang",
    "bikes": 35,
    "capacity": 79,
    "active": false,
    "lat": 38.153853,
    "lng": 114.152004
  },
  {
    "dockingId": 98,
    "name": "Hintze",
    "city": "Vista Hermosa",
    "bikes": 164,
    "capacity": 185,
    "active": false,
    "lat": 20.8068681,
    "lng": -102.7799627
  },
  {
    "dockingId": 99,
    "name": "Fulton",
    "city": "Valence",
    "bikes": 155,
    "capacity": 166,
    "active": false,
    "lat": 44.9280296,
    "lng": 4.8932938
  },
  {
    "dockingId": 100,
    "name": "Dexter",
    "city": "Lairoka",
    "bikes": 137,
    "capacity": 149,
    "active": false,
    "lat": -9.9104,
    "lng": 120.4871
  },
  {
    "dockingId": 101,
    "name": "Cody",
    "city": "Ajax",
    "bikes": 66,
    "capacity": 94,
    "active": false,
    "lat": 43.8732498,
    "lng": -79.002342
  },
  {
    "dockingId": 102,
    "name": "Lukken",
    "city": "Chigoré",
    "bikes": 136,
    "capacity": 188,
    "active": false,
    "lat": 8.5311099,
    "lng": -80.3463754
  },
  {
    "dockingId": 103,
    "name": "Anzinger",
    "city": "Sindangan",
    "bikes": 10,
    "capacity": 156,
    "active": false,
    "lat": 8.3104933,
    "lng": 122.9938347
  },
  {
    "dockingId": 104,
    "name": "Brown",
    "city": "Voskresensk",
    "bikes": 93,
    "capacity": 98,
    "active": true,
    "lat": 55.3238424,
    "lng": 38.6815132
  },
  {
    "dockingId": 105,
    "name": "Schlimgen",
    "city": "Al Khārijah",
    "bikes": 171,
    "capacity": 177,
    "active": false,
    "lat": 25.4390388,
    "lng": 30.5586043
  },
  {
    "dockingId": 106,
    "name": "Fairfield",
    "city": "Ximafang",
    "bikes": 97,
    "capacity": 156,
    "active": true,
    "lat": 38.665105,
    "lng": 112.032036
  },
  {
    "dockingId": 107,
    "name": "John Wall",
    "city": "Kataba",
    "bikes": 120,
    "capacity": 141,
    "active": false,
    "lat": -11.883333,
    "lng": 29.783333
  },
  {
    "dockingId": 108,
    "name": "Waubesa",
    "city": "Göteborg",
    "bikes": 200,
    "capacity": 200,
    "active": false,
    "lat": 57.6613265,
    "lng": 12.0134068
  },
  {
    "dockingId": 109,
    "name": "Kipling",
    "city": "Kalangan",
    "bikes": 70,
    "capacity": 190,
    "active": false,
    "lat": -7.3350849,
    "lng": 111.46038
  },
  {
    "dockingId": 110,
    "name": "Oriole",
    "city": "Tây Đằng",
    "bikes": 64,
    "capacity": 74,
    "active": false,
    "lat": 21.2067429,
    "lng": 105.4273093
  },
  {
    "dockingId": 111,
    "name": "Basil",
    "city": "Datong",
    "bikes": 170,
    "capacity": 183,
    "active": true,
    "lat": 40.076762,
    "lng": 113.300129
  },
  {
    "dockingId": 112,
    "name": "Northfield",
    "city": "Bogi",
    "bikes": 121,
    "capacity": 178,
    "active": false,
    "lat": -6.26619,
    "lng": 107.22105
  },
  {
    "dockingId": 113,
    "name": "Anderson",
    "city": "Chowki Jamali",
    "bikes": 109,
    "capacity": 197,
    "active": false,
    "lat": 28.0206587,
    "lng": 67.9219383
  },
  {
    "dockingId": 114,
    "name": "Cascade",
    "city": "Huangmei",
    "bikes": 6,
    "capacity": 194,
    "active": true,
    "lat": 30.070453,
    "lng": 115.944218
  },
  {
    "dockingId": 115,
    "name": "Fremont",
    "city": "Werasari",
    "bikes": 93,
    "capacity": 134,
    "active": false,
    "lat": -7.0453363,
    "lng": 108.2347863
  },
  {
    "dockingId": 116,
    "name": "Tomscot",
    "city": "Plast",
    "bikes": 160,
    "capacity": 160,
    "active": true,
    "lat": 54.4915943,
    "lng": 60.7871278
  },
  {
    "dockingId": 117,
    "name": "Grover",
    "city": "Badu",
    "bikes": 90,
    "capacity": 180,
    "active": false,
    "lat": 35.067361,
    "lng": 106.057816
  },
  {
    "dockingId": 118,
    "name": "Oxford",
    "city": "Dolores",
    "bikes": 157,
    "capacity": 193,
    "active": false,
    "lat": -36.2958562,
    "lng": -57.6855979
  },
  {
    "dockingId": 119,
    "name": "Clemons",
    "city": "Cashel",
    "bikes": 195,
    "capacity": 199,
    "active": true,
    "lat": 52.516323,
    "lng": -7.888894
  },
  {
    "dockingId": 120,
    "name": "Chinook",
    "city": "Tisul’",
    "bikes": 18,
    "capacity": 192,
    "active": false,
    "lat": 56.0764809,
    "lng": 88.6780253
  },
  {
    "dockingId": 121,
    "name": "Jay",
    "city": "Sevan",
    "bikes": 132,
    "capacity": 181,
    "active": false,
    "lat": 40.5484721,
    "lng": 44.9618132
  },
  {
    "dockingId": 122,
    "name": "Memorial",
    "city": "Robonkon",
    "bikes": 63,
    "capacity": 65,
    "active": false,
    "lat": 8.1679082,
    "lng": 124.1582966
  },
  {
    "dockingId": 123,
    "name": "Manley",
    "city": "Blumbang",
    "bikes": 106,
    "capacity": 157,
    "active": false,
    "lat": -7.37242,
    "lng": 110.6973469
  },
  {
    "dockingId": 124,
    "name": "Menomonie",
    "city": "Osan",
    "bikes": 171,
    "capacity": 172,
    "active": false,
    "lat": 37.0862154,
    "lng": 127.0391832
  },
  {
    "dockingId": 125,
    "name": "Hanson",
    "city": "Giedlarowa",
    "bikes": 187,
    "capacity": 190,
    "active": false,
    "lat": 50.2308874,
    "lng": 22.3984964
  },
  {
    "dockingId": 126,
    "name": "Lotheville",
    "city": "Klau",
    "bikes": 167,
    "capacity": 176,
    "active": true,
    "lat": -1.2088413,
    "lng": 116.8776192
  },
  {
    "dockingId": 127,
    "name": "Blue Bill Park",
    "city": "Fangtai",
    "bikes": 23,
    "capacity": 100,
    "active": true,
    "lat": 26.508568,
    "lng": 115.393687
  },
  {
    "dockingId": 128,
    "name": "Doe Crossing",
    "city": "Pingshan",
    "bikes": 1,
    "capacity": 164,
    "active": true,
    "lat": 22.691253,
    "lng": 114.346251
  },
  {
    "dockingId": 129,
    "name": "Browning",
    "city": "Saint-Gaudens",
    "bikes": 87,
    "capacity": 106,
    "active": true,
    "lat": 43.0926393,
    "lng": 0.7978655
  },
  {
    "dockingId": 130,
    "name": "Wayridge",
    "city": "Kendayakan",
    "bikes": 54,
    "capacity": 113,
    "active": true,
    "lat": -6.944036,
    "lng": 109.3277605
  },
  {
    "dockingId": 131,
    "name": "Fairfield",
    "city": "Cochabamba",
    "bikes": 21,
    "capacity": 174,
    "active": true,
    "lat": -9.483333,
    "lng": -77.866667
  },
  {
    "dockingId": 132,
    "name": "Norway Maple",
    "city": "Aygestan",
    "bikes": 26,
    "capacity": 166,
    "active": false,
    "lat": 39.9999288,
    "lng": 44.5583013
  },
  {
    "dockingId": 133,
    "name": "Westend",
    "city": "Jinjiang",
    "bikes": 9,
    "capacity": 184,
    "active": false,
    "lat": 24.781681,
    "lng": 118.552365
  },
  {
    "dockingId": 134,
    "name": "Crownhardt",
    "city": "Vievis",
    "bikes": 129,
    "capacity": 162,
    "active": true,
    "lat": 54.76667,
    "lng": 24.8
  },
  {
    "dockingId": 135,
    "name": "Forest",
    "city": "Tando Jām",
    "bikes": 102,
    "capacity": 177,
    "active": false,
    "lat": 25.4219675,
    "lng": 68.5142341
  },
  {
    "dockingId": 136,
    "name": "Delaware",
    "city": "Laizhou",
    "bikes": 166,
    "capacity": 168,
    "active": true,
    "lat": 37.177129,
    "lng": 119.942275
  },
  {
    "dockingId": 137,
    "name": "Briar Crest",
    "city": "Guernica",
    "bikes": 40,
    "capacity": 134,
    "active": false,
    "lat": -38.0752295,
    "lng": -57.5554058
  },
  {
    "dockingId": 138,
    "name": "Melrose",
    "city": "Borabue",
    "bikes": 6,
    "capacity": 140,
    "active": true,
    "lat": 15.9872056,
    "lng": 103.1279039
  },
  {
    "dockingId": 139,
    "name": "Darwin",
    "city": "Telpaneca",
    "bikes": 55,
    "capacity": 106,
    "active": true,
    "lat": 13.5292779,
    "lng": -86.2856819
  },
  {
    "dockingId": 140,
    "name": "Hallows",
    "city": "Baima",
    "bikes": 120,
    "capacity": 129,
    "active": false,
    "lat": 29.528923,
    "lng": 104.990101
  },
  {
    "dockingId": 141,
    "name": "Bayside",
    "city": "Sobral",
    "bikes": 100,
    "capacity": 191,
    "active": false,
    "lat": 41.7958538,
    "lng": -8.6553243
  },
  {
    "dockingId": 142,
    "name": "Bay",
    "city": "Santana do Paraíso",
    "bikes": 107,
    "capacity": 152,
    "active": true,
    "lat": -19.3882364,
    "lng": -42.5117238
  },
  {
    "dockingId": 143,
    "name": "Eliot",
    "city": "Yushu",
    "bikes": 123,
    "capacity": 133,
    "active": true,
    "lat": 32.993106,
    "lng": 97.008784
  },
  {
    "dockingId": 144,
    "name": "Oxford",
    "city": "Menlou’ao",
    "bikes": 155,
    "capacity": 174,
    "active": true,
    "lat": 28.505971,
    "lng": 113.329871
  },
  {
    "dockingId": 145,
    "name": "Brentwood",
    "city": "Wakuya",
    "bikes": 103,
    "capacity": 174,
    "active": false,
    "lat": 38.5503082,
    "lng": 141.1382005
  },
  {
    "dockingId": 146,
    "name": "Lighthouse Bay",
    "city": "Koshki",
    "bikes": 139,
    "capacity": 195,
    "active": true,
    "lat": 54.20802,
    "lng": 50.4676343
  },
  {
    "dockingId": 147,
    "name": "Nobel",
    "city": "Ängelholm",
    "bikes": 185,
    "capacity": 187,
    "active": true,
    "lat": 56.2716397,
    "lng": 12.8632487
  },
  {
    "dockingId": 148,
    "name": "Fordem",
    "city": "Bojawa",
    "bikes": 143,
    "capacity": 184,
    "active": false,
    "lat": -8.8341,
    "lng": 120.9593
  },
  {
    "dockingId": 149,
    "name": "Tony",
    "city": "Malesína",
    "bikes": 137,
    "capacity": 191,
    "active": false,
    "lat": 38.6226736,
    "lng": 23.2352639
  },
  {
    "dockingId": 150,
    "name": "Dorton",
    "city": "Krrabë",
    "bikes": 25,
    "capacity": 170,
    "active": false,
    "lat": 41.2177603,
    "lng": 19.969783
  },
  {
    "dockingId": 151,
    "name": "Lighthouse Bay",
    "city": "Anfu",
    "bikes": 104,
    "capacity": 174,
    "active": false,
    "lat": 27.392873,
    "lng": 114.619893
  },
  {
    "dockingId": 152,
    "name": "Lotheville",
    "city": "Xinji",
    "bikes": 108,
    "capacity": 143,
    "active": true,
    "lat": 37.943121,
    "lng": 115.217658
  },
  {
    "dockingId": 153,
    "name": "Manitowish",
    "city": "El Guapinol",
    "bikes": 153,
    "capacity": 190,
    "active": false,
    "lat": 13.1680197,
    "lng": -87.3872748
  },
  {
    "dockingId": 154,
    "name": "Raven",
    "city": "Orizari",
    "bikes": 188,
    "capacity": 191,
    "active": true,
    "lat": 41.0423985,
    "lng": 21.3607894
  },
  {
    "dockingId": 155,
    "name": "Ohio",
    "city": "Chanuman",
    "bikes": 145,
    "capacity": 159,
    "active": false,
    "lat": 16.2123852,
    "lng": 100.4198876
  },
  {
    "dockingId": 156,
    "name": "Tony",
    "city": "Gorelki",
    "bikes": 80,
    "capacity": 113,
    "active": true,
    "lat": 54.2474065,
    "lng": 37.6031799
  },
  {
    "dockingId": 157,
    "name": "Express",
    "city": "Velille",
    "bikes": 142,
    "capacity": 149,
    "active": false,
    "lat": -14.51688,
    "lng": -71.88636
  },
  {
    "dockingId": 158,
    "name": "Declaration",
    "city": "Rengo",
    "bikes": 130,
    "capacity": 181,
    "active": true,
    "lat": -34.4023791,
    "lng": -70.8674411
  },
  {
    "dockingId": 159,
    "name": "Granby",
    "city": "Turmi",
    "bikes": 154,
    "capacity": 157,
    "active": false,
    "lat": 4.9640933,
    "lng": 36.4878241
  },
  {
    "dockingId": 160,
    "name": "Becker",
    "city": "Aix-en-Provence",
    "bikes": 145,
    "capacity": 182,
    "active": true,
    "lat": 43.7883496,
    "lng": 4.9548261
  },
  {
    "dockingId": 161,
    "name": "Veith",
    "city": "Wucheng",
    "bikes": 140,
    "capacity": 145,
    "active": false,
    "lat": 29.086221,
    "lng": 119.571633
  },
  {
    "dockingId": 162,
    "name": "Beilfuss",
    "city": "Huilong",
    "bikes": 169,
    "capacity": 190,
    "active": true,
    "lat": 30.304377,
    "lng": 103.686294
  },
  {
    "dockingId": 163,
    "name": "Kedzie",
    "city": "Kherson",
    "bikes": 22,
    "capacity": 175,
    "active": true,
    "lat": 46.635417,
    "lng": 32.616867
  },
  {
    "dockingId": 164,
    "name": "Reinke",
    "city": "Lianhua",
    "bikes": 114,
    "capacity": 130,
    "active": false,
    "lat": 27.127669,
    "lng": 113.961465
  },
  {
    "dockingId": 165,
    "name": "South",
    "city": "Lanas",
    "bikes": 22,
    "capacity": 120,
    "active": true,
    "lat": 18.1686828,
    "lng": 120.7050032
  },
  {
    "dockingId": 166,
    "name": "Grim",
    "city": "Vinha",
    "bikes": 98,
    "capacity": 117,
    "active": false,
    "lat": 41.3009465,
    "lng": -8.1528902
  },
  {
    "dockingId": 167,
    "name": "Namekagon",
    "city": "Tintina",
    "bikes": 24,
    "capacity": 86,
    "active": true,
    "lat": -27.0307058,
    "lng": -62.7087197
  },
  {
    "dockingId": 168,
    "name": "Milwaukee",
    "city": "Nai Harn",
    "bikes": 109,
    "capacity": 177,
    "active": false,
    "lat": 7.7785093,
    "lng": 98.3031575
  },
  {
    "dockingId": 169,
    "name": "Garrison",
    "city": "Xihe",
    "bikes": 87,
    "capacity": 96,
    "active": true,
    "lat": 34.014215,
    "lng": 105.298756
  },
  {
    "dockingId": 170,
    "name": "Portage",
    "city": "Gritsovskiy",
    "bikes": 154,
    "capacity": 196,
    "active": false,
    "lat": 54.1349846,
    "lng": 38.1596549
  },
  {
    "dockingId": 171,
    "name": "Badeau",
    "city": "São Vicente de Ferreira",
    "bikes": 196,
    "capacity": 196,
    "active": true,
    "lat": 37.817552,
    "lng": -25.66905
  },
  {
    "dockingId": 172,
    "name": "Lakewood",
    "city": "Matanza",
    "bikes": 72,
    "capacity": 130,
    "active": false,
    "lat": 7.3988718,
    "lng": -73.052334
  },
  {
    "dockingId": 173,
    "name": "School",
    "city": "Enonkoski",
    "bikes": 7,
    "capacity": 162,
    "active": true,
    "lat": 62.0893368,
    "lng": 28.9160917
  },
  {
    "dockingId": 174,
    "name": "Stone Corner",
    "city": "Ishkhoy-Yurt",
    "bikes": 39,
    "capacity": 148,
    "active": false,
    "lat": 43.2150141,
    "lng": 46.3893765
  },
  {
    "dockingId": 175,
    "name": "West",
    "city": "Huifa",
    "bikes": 120,
    "capacity": 182,
    "active": true,
    "lat": 29.1082924,
    "lng": 119.6364468
  },
  {
    "dockingId": 176,
    "name": "Superior",
    "city": "Chalamarca",
    "bikes": 140,
    "capacity": 189,
    "active": true,
    "lat": -6.5139395,
    "lng": -78.5185197
  },
  {
    "dockingId": 177,
    "name": "Ilene",
    "city": "Duas Igrejas",
    "bikes": 78,
    "capacity": 95,
    "active": false,
    "lat": 41.2267295,
    "lng": -8.378101
  },
  {
    "dockingId": 178,
    "name": "Delaware",
    "city": "Baisha",
    "bikes": 54,
    "capacity": 186,
    "active": true,
    "lat": 26.641315,
    "lng": 100.222545
  },
  {
    "dockingId": 179,
    "name": "Fair Oaks",
    "city": "Clondalkin",
    "bikes": 67,
    "capacity": 187,
    "active": true,
    "lat": 53.3582341,
    "lng": -6.4496384
  },
  {
    "dockingId": 180,
    "name": "Corry",
    "city": "Cibunar",
    "bikes": 156,
    "capacity": 186,
    "active": false,
    "lat": -6.3413734,
    "lng": 106.5495683
  },
  {
    "dockingId": 181,
    "name": "Forest",
    "city": "Telbang",
    "bikes": 108,
    "capacity": 158,
    "active": true,
    "lat": 15.79903,
    "lng": 120.4542479
  },
  {
    "dockingId": 182,
    "name": "Milwaukee",
    "city": "Motupe",
    "bikes": 49,
    "capacity": 57,
    "active": true,
    "lat": -6.1512014,
    "lng": -79.7147468
  },
  {
    "dockingId": 183,
    "name": "Brown",
    "city": "Vihti",
    "bikes": 46,
    "capacity": 149,
    "active": true,
    "lat": 60.4165735,
    "lng": 24.3256379
  },
  {
    "dockingId": 184,
    "name": "Anderson",
    "city": "Batroûn",
    "bikes": 52,
    "capacity": 57,
    "active": false,
    "lat": 34.249832,
    "lng": 35.6642904
  },
  {
    "dockingId": 185,
    "name": "Superior",
    "city": "Tangzhai",
    "bikes": 189,
    "capacity": 191,
    "active": true,
    "lat": 30.274084,
    "lng": 120.15507
  },
  {
    "dockingId": 186,
    "name": "Eggendart",
    "city": "Vesoul",
    "bikes": 0,
    "capacity": 74,
    "active": true,
    "lat": 47.6022755,
    "lng": 6.2194418
  },
  {
    "dockingId": 187,
    "name": "Weeping Birch",
    "city": "Vũ Quang",
    "bikes": 7,
    "capacity": 52,
    "active": true,
    "lat": 18.2865589,
    "lng": 105.4771084
  },
  {
    "dockingId": 188,
    "name": "Elgar",
    "city": "Osan",
    "bikes": 128,
    "capacity": 198,
    "active": true,
    "lat": 37.0862154,
    "lng": 127.0391832
  },
  {
    "dockingId": 189,
    "name": "Grayhawk",
    "city": "Bulbul",
    "bikes": 88,
    "capacity": 109,
    "active": true,
    "lat": 36.7711541,
    "lng": 36.8182983
  },
  {
    "dockingId": 190,
    "name": "Morning",
    "city": "Huohua",
    "bikes": 93,
    "capacity": 124,
    "active": true,
    "lat": 25.689394,
    "lng": 106.058692
  },
  {
    "dockingId": 191,
    "name": "Fuller",
    "city": "Binuangeun",
    "bikes": 98,
    "capacity": 130,
    "active": false,
    "lat": -6.838862,
    "lng": 105.8844726
  },
  {
    "dockingId": 192,
    "name": "Manitowish",
    "city": "Kaduheuleut",
    "bikes": 164,
    "capacity": 171,
    "active": false,
    "lat": -6.8742097,
    "lng": 108.0012723
  },
  {
    "dockingId": 193,
    "name": "Loftsgordon",
    "city": "Guangsheng",
    "bikes": 47,
    "capacity": 63,
    "active": true,
    "lat": 23.14855,
    "lng": 113.249429
  },
  {
    "dockingId": 194,
    "name": "Algoma",
    "city": "Yuanqiao",
    "bikes": 32,
    "capacity": 55,
    "active": true,
    "lat": 32.5639,
    "lng": 120.396768
  },
  {
    "dockingId": 195,
    "name": "Sutteridge",
    "city": "Kangxung",
    "bikes": 141,
    "capacity": 178,
    "active": true,
    "lat": 29.276219,
    "lng": 90.081241
  },
  {
    "dockingId": 196,
    "name": "Northridge",
    "city": "Nowshera Cantonment",
    "bikes": 48,
    "capacity": 148,
    "active": false,
    "lat": 34.0083715,
    "lng": 72.0109863
  },
  {
    "dockingId": 197,
    "name": "Monterey",
    "city": "Chinchiná",
    "bikes": 71,
    "capacity": 197,
    "active": false,
    "lat": 4.9764526,
    "lng": -75.6695834
  },
  {
    "dockingId": 198,
    "name": "Oakridge",
    "city": "Caraballeda",
    "bikes": 157,
    "capacity": 182,
    "active": true,
    "lat": 10.6135398,
    "lng": -66.8498883
  },
  {
    "dockingId": 199,
    "name": "Hoard",
    "city": "Ilangay",
    "bikes": 47,
    "capacity": 183,
    "active": true,
    "lat": 6.8954177,
    "lng": 126.0203934
  },
  {
    "dockingId": 200,
    "name": "Rutledge",
    "city": "Nanyang",
    "bikes": 153,
    "capacity": 194,
    "active": true,
    "lat": 32.990664,
    "lng": 112.528308
  },
  {
    "dockingId": 201,
    "name": "Cottonwood",
    "city": "Las Palomas",
    "bikes": 196,
    "capacity": 200,
    "active": true,
    "lat": -25.2935305,
    "lng": -57.5793046
  },
  {
    "dockingId": 202,
    "name": "Talmadge",
    "city": "Garagoa",
    "bikes": 32,
    "capacity": 63,
    "active": false,
    "lat": 5.082453,
    "lng": -73.365046
  },
  {
    "dockingId": 203,
    "name": "Anthes",
    "city": "Cambé",
    "bikes": 95,
    "capacity": 182,
    "active": true,
    "lat": -23.277052,
    "lng": -51.2803152
  },
  {
    "dockingId": 204,
    "name": "Hauk",
    "city": "Blokdesa Situgede",
    "bikes": 56,
    "capacity": 102,
    "active": true,
    "lat": -6.5504395,
    "lng": 106.7441048
  },
  {
    "dockingId": 205,
    "name": "Farragut",
    "city": "Lunas",
    "bikes": 148,
    "capacity": 185,
    "active": true,
    "lat": 14.5748896,
    "lng": 121.0455547
  },
  {
    "dockingId": 206,
    "name": "Jackson",
    "city": "Gialo",
    "bikes": 121,
    "capacity": 127,
    "active": false,
    "lat": 29.040621,
    "lng": 21.4991334
  },
  {
    "dockingId": 207,
    "name": "Carberry",
    "city": "Jasper Park Lodge",
    "bikes": 50,
    "capacity": 134,
    "active": true,
    "lat": 52.8861365,
    "lng": -118.0572366
  },
  {
    "dockingId": 208,
    "name": "Annamark",
    "city": "Poncokusumo",
    "bikes": 72,
    "capacity": 140,
    "active": true,
    "lat": -8.0515728,
    "lng": 112.8343844
  },
  {
    "dockingId": 209,
    "name": "Fremont",
    "city": "Khlong Toei",
    "bikes": 185,
    "capacity": 194,
    "active": false,
    "lat": 13.7192462,
    "lng": 100.5583692
  },
  {
    "dockingId": 210,
    "name": "Parkside",
    "city": "Heshui",
    "bikes": 83,
    "capacity": 127,
    "active": true,
    "lat": 35.819227,
    "lng": 108.019549
  },
  {
    "dockingId": 211,
    "name": "Hoard",
    "city": "Jinzhuang",
    "bikes": 114,
    "capacity": 149,
    "active": false,
    "lat": 37.690551,
    "lng": 116.293767
  },
  {
    "dockingId": 212,
    "name": "Monument",
    "city": "Encontrados",
    "bikes": 27,
    "capacity": 112,
    "active": true,
    "lat": 9.0578504,
    "lng": -72.233418
  },
  {
    "dockingId": 213,
    "name": "Graedel",
    "city": "Bang Kaeo",
    "bikes": 5,
    "capacity": 43,
    "active": false,
    "lat": 7.4286324,
    "lng": 100.1927389
  },
  {
    "dockingId": 214,
    "name": "Artisan",
    "city": "Portmore",
    "bikes": 62,
    "capacity": 181,
    "active": false,
    "lat": 17.9611269,
    "lng": -76.8893907
  },
  {
    "dockingId": 215,
    "name": "Weeping Birch",
    "city": "Caridade",
    "bikes": 18,
    "capacity": 197,
    "active": false,
    "lat": 38.4475572,
    "lng": -7.5669496
  },
  {
    "dockingId": 216,
    "name": "Hoepker",
    "city": "Vårby",
    "bikes": 81,
    "capacity": 136,
    "active": false,
    "lat": 59.2691081,
    "lng": 17.8651957
  },
  {
    "dockingId": 217,
    "name": "Rieder",
    "city": "Sugito",
    "bikes": 148,
    "capacity": 193,
    "active": true,
    "lat": 36.0359016,
    "lng": 139.7192223
  },
  {
    "dockingId": 218,
    "name": "Anzinger",
    "city": "Manzë",
    "bikes": 111,
    "capacity": 157,
    "active": false,
    "lat": 41.42861,
    "lng": 19.59306
  },
  {
    "dockingId": 219,
    "name": "Morningstar",
    "city": "Ognevka",
    "bikes": 52,
    "capacity": 131,
    "active": true,
    "lat": 49.681594,
    "lng": 83.0180782
  },
  {
    "dockingId": 220,
    "name": "Pierstorff",
    "city": "Cibungur",
    "bikes": 129,
    "capacity": 168,
    "active": true,
    "lat": -6.4698758,
    "lng": 107.4780383
  },
  {
    "dockingId": 221,
    "name": "Gale",
    "city": "Santa Rita",
    "bikes": 132,
    "capacity": 185,
    "active": false,
    "lat": 11.4496002,
    "lng": 124.9415553
  },
  {
    "dockingId": 222,
    "name": "2nd",
    "city": "Purral",
    "bikes": 141,
    "capacity": 142,
    "active": true,
    "lat": 9.9576111,
    "lng": -84.0284827
  },
  {
    "dockingId": 223,
    "name": "Morning",
    "city": "San Jose Village",
    "bikes": 198,
    "capacity": 198,
    "active": false,
    "lat": 14.9699796,
    "lng": 145.6412079
  },
  {
    "dockingId": 224,
    "name": "Rockefeller",
    "city": "Palanas",
    "bikes": 146,
    "capacity": 147,
    "active": true,
    "lat": 14.4066158,
    "lng": 120.942358
  },
  {
    "dockingId": 225,
    "name": "High Crossing",
    "city": "Padej",
    "bikes": 48,
    "capacity": 140,
    "active": false,
    "lat": 45.8235836,
    "lng": 20.1844504
  },
  {
    "dockingId": 226,
    "name": "Roxbury",
    "city": "Manakara",
    "bikes": 89,
    "capacity": 104,
    "active": true,
    "lat": -22.1432288,
    "lng": 48.0059825
  },
  {
    "dockingId": 227,
    "name": "Corscot",
    "city": "Bukitkemuning",
    "bikes": 68,
    "capacity": 112,
    "active": true,
    "lat": -4.9590869,
    "lng": 104.5422225
  },
  {
    "dockingId": 228,
    "name": "Northridge",
    "city": "Plottier",
    "bikes": 70,
    "capacity": 90,
    "active": false,
    "lat": -38.956431,
    "lng": -68.23127
  },
  {
    "dockingId": 229,
    "name": "Northwestern",
    "city": "Piškorevci",
    "bikes": 176,
    "capacity": 176,
    "active": false,
    "lat": 45.2767109,
    "lng": 18.3876045
  },
  {
    "dockingId": 230,
    "name": "Del Sol",
    "city": "Wilga",
    "bikes": 42,
    "capacity": 80,
    "active": false,
    "lat": 51.8407513,
    "lng": 21.4105498
  },
  {
    "dockingId": 231,
    "name": "Eggendart",
    "city": "Vília",
    "bikes": 191,
    "capacity": 200,
    "active": false,
    "lat": 38.1670027,
    "lng": 23.3389501
  },
  {
    "dockingId": 232,
    "name": "Fordem",
    "city": "Odivelas",
    "bikes": 74,
    "capacity": 193,
    "active": true,
    "lat": 38.1678374,
    "lng": -8.1496483
  },
  {
    "dockingId": 233,
    "name": "Summit",
    "city": "Mūḩ Ḩasan",
    "bikes": 68,
    "capacity": 78,
    "active": true,
    "lat": 35.23194,
    "lng": 40.32227
  },
  {
    "dockingId": 234,
    "name": "Calypso",
    "city": "Kuçovë",
    "bikes": 68,
    "capacity": 146,
    "active": true,
    "lat": 40.8103206,
    "lng": 19.9199137
  },
  {
    "dockingId": 235,
    "name": "Warrior",
    "city": "Cairima",
    "bikes": 168,
    "capacity": 173,
    "active": true,
    "lat": 33.423008,
    "lng": 102.283399
  },
  {
    "dockingId": 236,
    "name": "Anthes",
    "city": "Anserma",
    "bikes": 125,
    "capacity": 147,
    "active": true,
    "lat": 5.242598,
    "lng": -75.781831
  },
  {
    "dockingId": 237,
    "name": "Moose",
    "city": "Cahuac",
    "bikes": 131,
    "capacity": 148,
    "active": true,
    "lat": -9.8535874,
    "lng": -76.631796
  },
  {
    "dockingId": 238,
    "name": "American Ash",
    "city": "Louiseville",
    "bikes": 53,
    "capacity": 168,
    "active": false,
    "lat": 46.252804,
    "lng": -72.9507829
  },
  {
    "dockingId": 239,
    "name": "Graceland",
    "city": "Jiuhua",
    "bikes": 57,
    "capacity": 195,
    "active": true,
    "lat": 30.4333333,
    "lng": 117.8333333
  },
  {
    "dockingId": 240,
    "name": "Park Meadow",
    "city": "Laško",
    "bikes": 58,
    "capacity": 133,
    "active": false,
    "lat": 46.1542793,
    "lng": 15.2359979
  },
  {
    "dockingId": 241,
    "name": "Express",
    "city": "Nova Friburgo",
    "bikes": 150,
    "capacity": 193,
    "active": true,
    "lat": -22.2887261,
    "lng": -42.5340796
  },
  {
    "dockingId": 242,
    "name": "Gerald",
    "city": "Santander de Quilichao",
    "bikes": 117,
    "capacity": 123,
    "active": false,
    "lat": 3.01228,
    "lng": -76.484533
  },
  {
    "dockingId": 243,
    "name": "Grover",
    "city": "Guilmaro",
    "bikes": 111,
    "capacity": 116,
    "active": true,
    "lat": 10.5685138,
    "lng": 1.7283341
  },
  {
    "dockingId": 244,
    "name": "Dexter",
    "city": "Baisha",
    "bikes": 8,
    "capacity": 76,
    "active": false,
    "lat": 26.641315,
    "lng": 100.222545
  },
  {
    "dockingId": 245,
    "name": "Magdeline",
    "city": "Pinggirsari",
    "bikes": 107,
    "capacity": 170,
    "active": false,
    "lat": -7.0837462,
    "lng": 107.6540877
  },
  {
    "dockingId": 246,
    "name": "Dakota",
    "city": "Vessada",
    "bikes": 79,
    "capacity": 167,
    "active": false,
    "lat": 40.5566629,
    "lng": -8.5821839
  },
  {
    "dockingId": 247,
    "name": "Mcguire",
    "city": "Chulabhorn",
    "bikes": 124,
    "capacity": 172,
    "active": false,
    "lat": 16.5284299,
    "lng": 101.638266
  },
  {
    "dockingId": 248,
    "name": "Crescent Oaks",
    "city": "Pilcaniyeu",
    "bikes": 93,
    "capacity": 120,
    "active": true,
    "lat": -38.7418721,
    "lng": -62.2206382
  },
  {
    "dockingId": 249,
    "name": "Jackson",
    "city": "Koímisi",
    "bikes": 153,
    "capacity": 161,
    "active": false,
    "lat": 41.2130334,
    "lng": 23.2996379
  },
  {
    "dockingId": 250,
    "name": "Bay",
    "city": "Kotovsk",
    "bikes": 139,
    "capacity": 139,
    "active": false,
    "lat": 52.6029163,
    "lng": 41.4669909
  },
  {
    "dockingId": 251,
    "name": "Northwestern",
    "city": "Idi Rayeuk",
    "bikes": 120,
    "capacity": 199,
    "active": false,
    "lat": 4.9623026,
    "lng": 97.7525352
  },
  {
    "dockingId": 252,
    "name": "Anderson",
    "city": "Huimin",
    "bikes": 19,
    "capacity": 23,
    "active": false,
    "lat": 37.489877,
    "lng": 117.509921
  },
  {
    "dockingId": 253,
    "name": "Clove",
    "city": "Amieirinha",
    "bikes": 139,
    "capacity": 144,
    "active": true,
    "lat": 39.7317899,
    "lng": -8.9338952
  },
  {
    "dockingId": 254,
    "name": "South",
    "city": "Depapre",
    "bikes": 75,
    "capacity": 141,
    "active": true,
    "lat": -2.4655425,
    "lng": 140.4101474
  },
  {
    "dockingId": 255,
    "name": "Loeprich",
    "city": "Nancang",
    "bikes": 94,
    "capacity": 164,
    "active": false,
    "lat": 28.682892,
    "lng": 115.858197
  },
  {
    "dockingId": 256,
    "name": "Buena Vista",
    "city": "Bestovje",
    "bikes": 152,
    "capacity": 174,
    "active": false,
    "lat": 45.8068679,
    "lng": 15.8104824
  },
  {
    "dockingId": 257,
    "name": "Stuart",
    "city": "Chor",
    "bikes": 180,
    "capacity": 183,
    "active": false,
    "lat": 25.3902138,
    "lng": 69.7414118
  },
  {
    "dockingId": 258,
    "name": "Manitowish",
    "city": "Ovsyanka",
    "bikes": 72,
    "capacity": 170,
    "active": true,
    "lat": 55.9562612,
    "lng": 92.5796162
  },
  {
    "dockingId": 259,
    "name": "Golf View",
    "city": "Trzciana",
    "bikes": 82,
    "capacity": 150,
    "active": false,
    "lat": 50.05998,
    "lng": 21.8324138
  },
  {
    "dockingId": 260,
    "name": "Katie",
    "city": "Minneapolis",
    "bikes": 97,
    "capacity": 106,
    "active": false,
    "lat": 44.9799999,
    "lng": -93.26
  },
  {
    "dockingId": 261,
    "name": "Buell",
    "city": "Khulm",
    "bikes": 125,
    "capacity": 140,
    "active": true,
    "lat": 36.7027082,
    "lng": 67.7079491
  },
  {
    "dockingId": 262,
    "name": "Logan",
    "city": "Mtwango",
    "bikes": 36,
    "capacity": 170,
    "active": false,
    "lat": -9.016667,
    "lng": 34.8
  },
  {
    "dockingId": 263,
    "name": "Toban",
    "city": "Krajanbaturno",
    "bikes": 124,
    "capacity": 172,
    "active": true,
    "lat": -6.7657,
    "lng": 111.6511
  },
  {
    "dockingId": 264,
    "name": "Northport",
    "city": "Qiaodi",
    "bikes": 62,
    "capacity": 169,
    "active": true,
    "lat": 34.600701,
    "lng": 108.722463
  },
  {
    "dockingId": 265,
    "name": "Cottonwood",
    "city": "Ceará Mirim",
    "bikes": 144,
    "capacity": 193,
    "active": true,
    "lat": -5.6353028,
    "lng": -35.4210417
  },
  {
    "dockingId": 266,
    "name": "Lindbergh",
    "city": "Pisaras",
    "bikes": 29,
    "capacity": 189,
    "active": false,
    "lat": 8.5703071,
    "lng": 150.4189148
  },
  {
    "dockingId": 267,
    "name": "Schmedeman",
    "city": "Little Rock",
    "bikes": 33,
    "capacity": 120,
    "active": false,
    "lat": 34.7576397,
    "lng": -92.324251
  },
  {
    "dockingId": 268,
    "name": "Hauk",
    "city": "Rawson",
    "bikes": 5,
    "capacity": 100,
    "active": true,
    "lat": -37.9707308,
    "lng": -57.6258993
  },
  {
    "dockingId": 269,
    "name": "Northwestern",
    "city": "Järfälla",
    "bikes": 147,
    "capacity": 175,
    "active": false,
    "lat": 59.4380021,
    "lng": 17.8170502
  },
  {
    "dockingId": 270,
    "name": "Northview",
    "city": "Desa Borogojol",
    "bikes": 71,
    "capacity": 149,
    "active": false,
    "lat": -7.034968,
    "lng": 108.1725154
  },
  {
    "dockingId": 271,
    "name": "Gateway",
    "city": "Longmen",
    "bikes": 75,
    "capacity": 87,
    "active": false,
    "lat": 34.5594987,
    "lng": 112.4678779
  },
  {
    "dockingId": 272,
    "name": "Namekagon",
    "city": "Caldelas",
    "bikes": 19,
    "capacity": 102,
    "active": false,
    "lat": 39.7306375,
    "lng": -8.7036302
  },
  {
    "dockingId": 273,
    "name": "Cambridge",
    "city": "Prudentópolis",
    "bikes": 121,
    "capacity": 194,
    "active": true,
    "lat": -25.1023112,
    "lng": -51.1376317
  },
  {
    "dockingId": 274,
    "name": "Continental",
    "city": "Trelleborg",
    "bikes": 50,
    "capacity": 156,
    "active": false,
    "lat": 55.4024162,
    "lng": 13.2348803
  },
  {
    "dockingId": 275,
    "name": "David",
    "city": "Agua Fría",
    "bikes": 62,
    "capacity": 199,
    "active": false,
    "lat": 13.4710669,
    "lng": -87.5470024
  },
  {
    "dockingId": 276,
    "name": "Westridge",
    "city": "Pniv",
    "bikes": 108,
    "capacity": 182,
    "active": true,
    "lat": 48.6144697,
    "lng": 24.5234182
  },
  {
    "dockingId": 277,
    "name": "Basil",
    "city": "København",
    "bikes": 48,
    "capacity": 111,
    "active": false,
    "lat": 55.6700613,
    "lng": 12.5468826
  },
  {
    "dockingId": 278,
    "name": "Stuart",
    "city": "Hengjiang",
    "bikes": 88,
    "capacity": 104,
    "active": false,
    "lat": 23.0685814,
    "lng": 112.4496521
  },
  {
    "dockingId": 279,
    "name": "Eliot",
    "city": "Créteil",
    "bikes": 113,
    "capacity": 115,
    "active": false,
    "lat": 48.7803815,
    "lng": 2.4549884
  },
  {
    "dockingId": 280,
    "name": "Derek",
    "city": "Danauparis",
    "bikes": 26,
    "capacity": 81,
    "active": false,
    "lat": 2.298952,
    "lng": 98.1120116
  },
  {
    "dockingId": 281,
    "name": "Lerdahl",
    "city": "Damatou",
    "bikes": 79,
    "capacity": 167,
    "active": false,
    "lat": 34.429066,
    "lng": 117.609916
  },
  {
    "dockingId": 282,
    "name": "Bobwhite",
    "city": "Pangkalan Kasai",
    "bikes": 175,
    "capacity": 184,
    "active": true,
    "lat": -0.6059095,
    "lng": 102.4151335
  },
  {
    "dockingId": 283,
    "name": "Stoughton",
    "city": "Pirassununga",
    "bikes": 69,
    "capacity": 102,
    "active": true,
    "lat": -21.9896473,
    "lng": -47.4220818
  },
  {
    "dockingId": 284,
    "name": "Debra",
    "city": "Isyangulovo",
    "bikes": 43,
    "capacity": 170,
    "active": false,
    "lat": 52.1929515,
    "lng": 56.5806021
  },
  {
    "dockingId": 285,
    "name": "Buena Vista",
    "city": "Floridablanca",
    "bikes": 51,
    "capacity": 198,
    "active": false,
    "lat": 7.0427956,
    "lng": -73.1054544
  },
  {
    "dockingId": 286,
    "name": "Linden",
    "city": "Bzou",
    "bikes": 127,
    "capacity": 137,
    "active": true,
    "lat": 32.0860889,
    "lng": -7.0552218
  },
  {
    "dockingId": 287,
    "name": "Mendota",
    "city": "Kuma",
    "bikes": 78,
    "capacity": 155,
    "active": true,
    "lat": -6.155077,
    "lng": 106.817744
  },
  {
    "dockingId": 288,
    "name": "Hooker",
    "city": "Racine",
    "bikes": 108,
    "capacity": 188,
    "active": true,
    "lat": 42.7333428,
    "lng": -87.8255014
  },
  {
    "dockingId": 289,
    "name": "Kinsman",
    "city": "Xibei",
    "bikes": 16,
    "capacity": 89,
    "active": true,
    "lat": 31.208465,
    "lng": 121.526733
  },
  {
    "dockingId": 290,
    "name": "Stephen",
    "city": "Jieshi",
    "bikes": 179,
    "capacity": 183,
    "active": true,
    "lat": 22.816884,
    "lng": 115.830376
  },
  {
    "dockingId": 291,
    "name": "Stang",
    "city": "Solomenskoye",
    "bikes": 101,
    "capacity": 156,
    "active": true,
    "lat": 61.8319048,
    "lng": 34.3054029
  },
  {
    "dockingId": 292,
    "name": "Mitchell",
    "city": "Pallasovka",
    "bikes": 126,
    "capacity": 160,
    "active": true,
    "lat": 50.0429768,
    "lng": 46.8886722
  },
  {
    "dockingId": 293,
    "name": "Surrey",
    "city": "Butel",
    "bikes": 69,
    "capacity": 186,
    "active": false,
    "lat": 41.9924293,
    "lng": 21.4298411
  },
  {
    "dockingId": 294,
    "name": "Bartelt",
    "city": "Cibeusi",
    "bikes": 40,
    "capacity": 177,
    "active": true,
    "lat": -6.752982,
    "lng": 107.6896073
  },
  {
    "dockingId": 295,
    "name": "Center",
    "city": "Diepsloot",
    "bikes": 187,
    "capacity": 200,
    "active": true,
    "lat": -25.9248045,
    "lng": 28.0172665
  },
  {
    "dockingId": 296,
    "name": "Esch",
    "city": "Ciomas",
    "bikes": 175,
    "capacity": 193,
    "active": true,
    "lat": -6.6063841,
    "lng": 106.7617984
  },
  {
    "dockingId": 297,
    "name": "Gale",
    "city": "Sidaurip",
    "bikes": 60,
    "capacity": 76,
    "active": true,
    "lat": -7.690753,
    "lng": 109.2861268
  },
  {
    "dockingId": 298,
    "name": "Fulton",
    "city": "Tancheng",
    "bikes": 42,
    "capacity": 117,
    "active": true,
    "lat": 34.613586,
    "lng": 118.367215
  },
  {
    "dockingId": 299,
    "name": "Lakewood Gardens",
    "city": "Ar Rass",
    "bikes": 72,
    "capacity": 138,
    "active": false,
    "lat": 25.8517475,
    "lng": 43.5222313
  },
  {
    "dockingId": 300,
    "name": "Leroy",
    "city": "Winburg",
    "bikes": 64,
    "capacity": 87,
    "active": true,
    "lat": -28.5323842,
    "lng": 26.9999584
  },
  {
    "dockingId": 301,
    "name": "Grover",
    "city": "Cikadu",
    "bikes": 54,
    "capacity": 195,
    "active": true,
    "lat": -7.2929068,
    "lng": 107.2666396
  },
  {
    "dockingId": 302,
    "name": "Rusk",
    "city": "Ingå",
    "bikes": 160,
    "capacity": 176,
    "active": false,
    "lat": 60.1932037,
    "lng": 24.9412435
  },
  {
    "dockingId": 303,
    "name": "Mockingbird",
    "city": "Lichinga",
    "bikes": 68,
    "capacity": 139,
    "active": false,
    "lat": -13.3023564,
    "lng": 35.2478112
  },
  {
    "dockingId": 304,
    "name": "West",
    "city": "Maastricht",
    "bikes": 109,
    "capacity": 114,
    "active": false,
    "lat": 50.8446443,
    "lng": 5.6735818
  },
  {
    "dockingId": 305,
    "name": "Shopko",
    "city": "Fernandópolis",
    "bikes": 7,
    "capacity": 81,
    "active": false,
    "lat": -20.2810232,
    "lng": -50.2475804
  },
  {
    "dockingId": 306,
    "name": "Ramsey",
    "city": "Badeggi",
    "bikes": 68,
    "capacity": 159,
    "active": false,
    "lat": 9.0568265,
    "lng": 6.1434201
  },
  {
    "dockingId": 307,
    "name": "Melody",
    "city": "Trongsa",
    "bikes": 194,
    "capacity": 199,
    "active": true,
    "lat": 27.5002269,
    "lng": 90.5080634
  },
  {
    "dockingId": 308,
    "name": "Northview",
    "city": "Guder",
    "bikes": 119,
    "capacity": 166,
    "active": false,
    "lat": 8.9705754,
    "lng": 37.7609688
  },
  {
    "dockingId": 309,
    "name": "Stoughton",
    "city": "Jincheng",
    "bikes": 133,
    "capacity": 160,
    "active": true,
    "lat": 35.490701,
    "lng": 112.851831
  },
  {
    "dockingId": 310,
    "name": "Monument",
    "city": "Hexi",
    "bikes": 77,
    "capacity": 103,
    "active": false,
    "lat": 39.109563,
    "lng": 117.223371
  },
  {
    "dockingId": 311,
    "name": "Sunnyside",
    "city": "Ivry-sur-Seine",
    "bikes": 66,
    "capacity": 200,
    "active": true,
    "lat": 48.819324,
    "lng": 2.394771
  },
  {
    "dockingId": 312,
    "name": "Doe Crossing",
    "city": "Fushan",
    "bikes": 112,
    "capacity": 112,
    "active": false,
    "lat": 23.021478,
    "lng": 113.121435
  },
  {
    "dockingId": 313,
    "name": "Debs",
    "city": "Nanfeng",
    "bikes": 155,
    "capacity": 190,
    "active": true,
    "lat": 27.218444,
    "lng": 116.525725
  },
  {
    "dockingId": 314,
    "name": "Fuller",
    "city": "Portel",
    "bikes": 14,
    "capacity": 90,
    "active": true,
    "lat": 38.3089089,
    "lng": -7.7085755
  },
  {
    "dockingId": 315,
    "name": "Michigan",
    "city": "Shuangxiqiao",
    "bikes": 133,
    "capacity": 182,
    "active": true,
    "lat": 29.020827,
    "lng": 110.637506
  },
  {
    "dockingId": 316,
    "name": "Schmedeman",
    "city": "Sanli",
    "bikes": 148,
    "capacity": 169,
    "active": true,
    "lat": 24.84662,
    "lng": 116.746096
  },
  {
    "dockingId": 317,
    "name": "Schiller",
    "city": "Doljevac",
    "bikes": 125,
    "capacity": 198,
    "active": true,
    "lat": 43.1912783,
    "lng": 21.8238023
  },
  {
    "dockingId": 318,
    "name": "Pine View",
    "city": "Camino Real",
    "bikes": 44,
    "capacity": 194,
    "active": true,
    "lat": 19.4281922,
    "lng": -99.1789859
  },
  {
    "dockingId": 319,
    "name": "Hoffman",
    "city": "Lamalewo",
    "bikes": 21,
    "capacity": 93,
    "active": true,
    "lat": -8.5697306,
    "lng": 123.3991028
  },
  {
    "dockingId": 320,
    "name": "Steensland",
    "city": "Pentaplátano",
    "bikes": 171,
    "capacity": 175,
    "active": false,
    "lat": 40.8195312,
    "lng": 22.4188383
  },
  {
    "dockingId": 321,
    "name": "Myrtle",
    "city": "Cuispes",
    "bikes": 75,
    "capacity": 158,
    "active": false,
    "lat": -5.9285726,
    "lng": -77.9438811
  },
  {
    "dockingId": 322,
    "name": "South",
    "city": "Den Haag",
    "bikes": 48,
    "capacity": 88,
    "active": false,
    "lat": 51.5190765,
    "lng": 5.9202663
  },
  {
    "dockingId": 323,
    "name": "Dahle",
    "city": "Hulei",
    "bikes": 53,
    "capacity": 191,
    "active": true,
    "lat": 26.4363523,
    "lng": 106.5589556
  },
  {
    "dockingId": 324,
    "name": "Quincy",
    "city": "Samobor",
    "bikes": 186,
    "capacity": 198,
    "active": true,
    "lat": 45.8010928,
    "lng": 15.7110481
  },
  {
    "dockingId": 325,
    "name": "Bultman",
    "city": "Tingzhou",
    "bikes": 27,
    "capacity": 123,
    "active": true,
    "lat": 30.274084,
    "lng": 120.15507
  },
  {
    "dockingId": 326,
    "name": "Jenifer",
    "city": "Hongshi",
    "bikes": 91,
    "capacity": 122,
    "active": true,
    "lat": 29.891868,
    "lng": 119.574295
  },
  {
    "dockingId": 327,
    "name": "Tomscot",
    "city": "Zhaojia",
    "bikes": 139,
    "capacity": 141,
    "active": false,
    "lat": 31.074215,
    "lng": 121.549557
  },
  {
    "dockingId": 328,
    "name": "Ridgeway",
    "city": "São José",
    "bikes": 170,
    "capacity": 192,
    "active": false,
    "lat": -27.6140791,
    "lng": -48.6370861
  },
  {
    "dockingId": 329,
    "name": "4th",
    "city": "Göteborg",
    "bikes": 63,
    "capacity": 64,
    "active": false,
    "lat": 57.6938555,
    "lng": 11.9704401
  },
  {
    "dockingId": 330,
    "name": "Muir",
    "city": "Stockholm",
    "bikes": 1,
    "capacity": 27,
    "active": true,
    "lat": 59.3319489,
    "lng": 18.0221451
  },
  {
    "dockingId": 331,
    "name": "Sachtjen",
    "city": "Chong’ansi",
    "bikes": 92,
    "capacity": 175,
    "active": false,
    "lat": 28.498317,
    "lng": 112.523522
  },
  {
    "dockingId": 332,
    "name": "Nancy",
    "city": "Ubrub",
    "bikes": 6,
    "capacity": 54,
    "active": false,
    "lat": -3.1914976,
    "lng": 140.8872648
  },
  {
    "dockingId": 333,
    "name": "Eggendart",
    "city": "Aguiar da Beira",
    "bikes": 200,
    "capacity": 200,
    "active": true,
    "lat": 40.816453,
    "lng": -7.5454104
  },
  {
    "dockingId": 334,
    "name": "Grim",
    "city": "Machachi",
    "bikes": 78,
    "capacity": 130,
    "active": true,
    "lat": -0.5107264,
    "lng": -78.5717631
  },
  {
    "dockingId": 335,
    "name": "Meadow Vale",
    "city": "Mainit",
    "bikes": 72,
    "capacity": 128,
    "active": true,
    "lat": 9.5403936,
    "lng": 125.5240221
  },
  {
    "dockingId": 336,
    "name": "Meadow Vale",
    "city": "Wanurian",
    "bikes": 87,
    "capacity": 111,
    "active": false,
    "lat": -1.3458481,
    "lng": 131.7108641
  },
  {
    "dockingId": 338,
    "name": "Buhler",
    "city": "San Javier",
    "bikes": 118,
    "capacity": 185,
    "active": true,
    "lat": -32.6626805,
    "lng": -58.1295074
  },
  {
    "dockingId": 339,
    "name": "Calypso",
    "city": "Paris 07",
    "bikes": 152,
    "capacity": 196,
    "active": false,
    "lat": 43.4945737,
    "lng": 5.8978018
  },
  {
    "dockingId": 340,
    "name": "Sloan",
    "city": "Xinglongjie",
    "bikes": 96,
    "capacity": 192,
    "active": true,
    "lat": 30.077787,
    "lng": 108.892527
  },
  {
    "dockingId": 341,
    "name": "Roxbury",
    "city": "Yangjian",
    "bikes": 33,
    "capacity": 182,
    "active": true,
    "lat": 21.857958,
    "lng": 111.982232
  },
  {
    "dockingId": 342,
    "name": "Buhler",
    "city": "Schœlcher",
    "bikes": 8,
    "capacity": 111,
    "active": true,
    "lat": 14.7525179,
    "lng": -61.1759005
  },
  {
    "dockingId": 343,
    "name": "Arizona",
    "city": "Dongshe",
    "bikes": 157,
    "capacity": 168,
    "active": false,
    "lat": 23.701262,
    "lng": 117.430061
  },
  {
    "dockingId": 344,
    "name": "Comanche",
    "city": "Baisha",
    "bikes": 125,
    "capacity": 189,
    "active": true,
    "lat": 26.641315,
    "lng": 100.222545
  },
  {
    "dockingId": 345,
    "name": "Tennessee",
    "city": "Zarechnyy",
    "bikes": 87,
    "capacity": 180,
    "active": true,
    "lat": 54.982808,
    "lng": 73.328393
  },
  {
    "dockingId": 346,
    "name": "Carpenter",
    "city": "Letovice",
    "bikes": 56,
    "capacity": 116,
    "active": false,
    "lat": 49.5470892,
    "lng": 16.5735785
  },
  {
    "dockingId": 347,
    "name": "North",
    "city": "Ciudian",
    "bikes": 151,
    "capacity": 197,
    "active": true,
    "lat": -7.4619612,
    "lng": 107.8968943
  },
  {
    "dockingId": 348,
    "name": "Hazelcrest",
    "city": "Paulista",
    "bikes": 121,
    "capacity": 140,
    "active": false,
    "lat": -7.9181902,
    "lng": -34.8207597
  },
  {
    "dockingId": 349,
    "name": "Londonderry",
    "city": "Biscoitos",
    "bikes": 159,
    "capacity": 194,
    "active": true,
    "lat": 38.6152027,
    "lng": -28.0339781
  },
  {
    "dockingId": 350,
    "name": "Shopko",
    "city": "Jiangchi",
    "bikes": 46,
    "capacity": 82,
    "active": false,
    "lat": 27.0874564,
    "lng": 114.9042208
  },
  {
    "dockingId": 351,
    "name": "Dwight",
    "city": "Sangesi",
    "bikes": 136,
    "capacity": 146,
    "active": false,
    "lat": 27.066023,
    "lng": 110.961917
  },
  {
    "dockingId": 352,
    "name": "Kipling",
    "city": "Jia’an",
    "bikes": 180,
    "capacity": 180,
    "active": true,
    "lat": 36.696955,
    "lng": 116.911044
  },
  {
    "dockingId": 353,
    "name": "7th",
    "city": "Promissão",
    "bikes": 197,
    "capacity": 199,
    "active": false,
    "lat": -21.5354088,
    "lng": -49.8569266
  },
  {
    "dockingId": 354,
    "name": "Portage",
    "city": "Huangtian",
    "bikes": 39,
    "capacity": 182,
    "active": true,
    "lat": 22.636828,
    "lng": 113.814606
  },
  {
    "dockingId": 355,
    "name": "Forster",
    "city": "Sabangan",
    "bikes": 42,
    "capacity": 74,
    "active": false,
    "lat": 17.0056829,
    "lng": 120.9221678
  },
  {
    "dockingId": 357,
    "name": "Mcbride",
    "city": "Chacarita",
    "bikes": 37,
    "capacity": 133,
    "active": false,
    "lat": 9.97788,
    "lng": -84.762933
  },
  {
    "dockingId": 358,
    "name": "Basil",
    "city": "La Paz Centro",
    "bikes": 153,
    "capacity": 171,
    "active": true,
    "lat": 12.3434106,
    "lng": -86.6762176
  },
  {
    "dockingId": 359,
    "name": "Katie",
    "city": "Teluk Pinang",
    "bikes": 57,
    "capacity": 144,
    "active": true,
    "lat": -6.6817255,
    "lng": 106.851763
  },
  {
    "dockingId": 360,
    "name": "Debs",
    "city": "Chwałowice",
    "bikes": 74,
    "capacity": 164,
    "active": true,
    "lat": 50.756497,
    "lng": 21.8951181
  },
  {
    "dockingId": 361,
    "name": "Farragut",
    "city": "Gondang",
    "bikes": 76,
    "capacity": 129,
    "active": false,
    "lat": -7.4417327,
    "lng": 111.1056539
  },
  {
    "dockingId": 362,
    "name": "Twin Pines",
    "city": "Refojos",
    "bikes": 115,
    "capacity": 196,
    "active": false,
    "lat": 41.5162209,
    "lng": -7.9927714
  },
  {
    "dockingId": 363,
    "name": "Sauthoff",
    "city": "Chengxi",
    "bikes": 77,
    "capacity": 113,
    "active": false,
    "lat": 36.628305,
    "lng": 101.765843
  },
  {
    "dockingId": 364,
    "name": "Gina",
    "city": "Nyrob",
    "bikes": 163,
    "capacity": 183,
    "active": false,
    "lat": 60.7412843,
    "lng": 56.7240294
  },
  {
    "dockingId": 365,
    "name": "Lyons",
    "city": "Lazeshchyna",
    "bikes": 16,
    "capacity": 45,
    "active": true,
    "lat": 48.2735736,
    "lng": 24.411971
  },
  {
    "dockingId": 366,
    "name": "Union",
    "city": "Bateria",
    "bikes": 110,
    "capacity": 200,
    "active": false,
    "lat": 9.9508447,
    "lng": 123.9658538
  },
  {
    "dockingId": 367,
    "name": "Comanche",
    "city": "Iligan City",
    "bikes": 197,
    "capacity": 198,
    "active": false,
    "lat": 8.2260557,
    "lng": 124.2518415
  },
  {
    "dockingId": 368,
    "name": "Towne",
    "city": "Kapatagan",
    "bikes": 144,
    "capacity": 150,
    "active": true,
    "lat": 7.897581,
    "lng": 123.768678
  },
  {
    "dockingId": 369,
    "name": "Kinsman",
    "city": "Chengshan",
    "bikes": 144,
    "capacity": 171,
    "active": true,
    "lat": 37.363389,
    "lng": 122.552273
  },
  {
    "dockingId": 370,
    "name": "Chive",
    "city": "Znojmo",
    "bikes": 33,
    "capacity": 187,
    "active": true,
    "lat": 48.8242268,
    "lng": 16.0657342
  },
  {
    "dockingId": 371,
    "name": "Atwood",
    "city": "Chojnice",
    "bikes": 59,
    "capacity": 83,
    "active": false,
    "lat": 53.6944002,
    "lng": 17.5569252
  },
  {
    "dockingId": 372,
    "name": "Lukken",
    "city": "Noyemberyan",
    "bikes": 109,
    "capacity": 112,
    "active": true,
    "lat": 41.1718057,
    "lng": 44.9946631
  },
  {
    "dockingId": 373,
    "name": "Emmet",
    "city": "Isnā",
    "bikes": 55,
    "capacity": 199,
    "active": true,
    "lat": 25.2898918,
    "lng": 32.5522304
  },
  {
    "dockingId": 374,
    "name": "Calypso",
    "city": "San Mariano",
    "bikes": 106,
    "capacity": 157,
    "active": true,
    "lat": 16.9846184,
    "lng": 122.0047563
  },
  {
    "dockingId": 375,
    "name": "Caliangt",
    "city": "Yuhuang",
    "bikes": 86,
    "capacity": 181,
    "active": true,
    "lat": 28.13593,
    "lng": 121.231805
  },
  {
    "dockingId": 376,
    "name": "Sutherland",
    "city": "Ning’an",
    "bikes": 5,
    "capacity": 83,
    "active": true,
    "lat": 44.34072,
    "lng": 129.4828511
  },
  {
    "dockingId": 377,
    "name": "Ridgeway",
    "city": "Campbellton",
    "bikes": 10,
    "capacity": 90,
    "active": false,
    "lat": 48.007399,
    "lng": -66.6722057
  },
  {
    "dockingId": 378,
    "name": "Bluestem",
    "city": "Lucapon",
    "bikes": 144,
    "capacity": 147,
    "active": false,
    "lat": 15.6927248,
    "lng": 119.9351455
  },
  {
    "dockingId": 379,
    "name": "Melody",
    "city": "Gränna",
    "bikes": 120,
    "capacity": 124,
    "active": false,
    "lat": 58.0250234,
    "lng": 14.4700948
  },
  {
    "dockingId": 380,
    "name": "Hollow Ridge",
    "city": "Mabasa",
    "bikes": 13,
    "capacity": 200,
    "active": false,
    "lat": 16.3264084,
    "lng": 121.1190338
  },
  {
    "dockingId": 381,
    "name": "Veith",
    "city": "Heishan",
    "bikes": 135,
    "capacity": 170,
    "active": true,
    "lat": 41.666028,
    "lng": 122.1234429
  },
  {
    "dockingId": 382,
    "name": "Drewry",
    "city": "Réo",
    "bikes": 31,
    "capacity": 114,
    "active": true,
    "lat": 12.3181444,
    "lng": -2.4653598
  },
  {
    "dockingId": 385,
    "name": "Dahle",
    "city": "Maní",
    "bikes": 70,
    "capacity": 83,
    "active": false,
    "lat": 4.817986,
    "lng": -72.280702
  },
  {
    "dockingId": 386,
    "name": "Tomscot",
    "city": "Xinfeng",
    "bikes": 151,
    "capacity": 193,
    "active": true,
    "lat": 25.386379,
    "lng": 114.922922
  },
  {
    "dockingId": 387,
    "name": "Holy Cross",
    "city": "Bilozerka",
    "bikes": 198,
    "capacity": 198,
    "active": true,
    "lat": 46.6267067,
    "lng": 32.4413727
  },
  {
    "dockingId": 388,
    "name": "Columbus",
    "city": "Criciúma",
    "bikes": 166,
    "capacity": 199,
    "active": true,
    "lat": -28.6727702,
    "lng": -49.3733771
  },
  {
    "dockingId": 389,
    "name": "Comanche",
    "city": "Agboville",
    "bikes": 137,
    "capacity": 169,
    "active": false,
    "lat": 5.9354963,
    "lng": -4.2230836
  },
  {
    "dockingId": 390,
    "name": "Huxley",
    "city": "Jiangchang",
    "bikes": 70,
    "capacity": 133,
    "active": false,
    "lat": 21.861787,
    "lng": 111.955059
  },
  {
    "dockingId": 391,
    "name": "Troy",
    "city": "Baimajing",
    "bikes": 42,
    "capacity": 111,
    "active": false,
    "lat": 19.696407,
    "lng": 109.218734
  },
  {
    "dockingId": 392,
    "name": "Northwestern",
    "city": "Sumberejo",
    "bikes": 20,
    "capacity": 61,
    "active": false,
    "lat": -7.2030729,
    "lng": 112.0237903
  },
  {
    "dockingId": 393,
    "name": "Fisk",
    "city": "Kuching",
    "bikes": 46,
    "capacity": 147,
    "active": true,
    "lat": 1.547829,
    "lng": 110.341564
  },
  {
    "dockingId": 394,
    "name": "Scoville",
    "city": "Karatau",
    "bikes": 122,
    "capacity": 145,
    "active": true,
    "lat": 43.1780169,
    "lng": 70.455208
  },
  {
    "dockingId": 395,
    "name": "Dahle",
    "city": "Haoxue",
    "bikes": 79,
    "capacity": 150,
    "active": false,
    "lat": 37.399373,
    "lng": 110.691139
  },
  {
    "dockingId": 396,
    "name": "Rowland",
    "city": "Jiuxian",
    "bikes": 116,
    "capacity": 117,
    "active": false,
    "lat": 25.130594,
    "lng": 109.768451
  },
  {
    "dockingId": 397,
    "name": "Granby",
    "city": "Timmins",
    "bikes": 101,
    "capacity": 120,
    "active": false,
    "lat": 48.4980698,
    "lng": -81.3463468
  },
  {
    "dockingId": 398,
    "name": "Rigney",
    "city": "Garcia Hernandez",
    "bikes": 79,
    "capacity": 107,
    "active": false,
    "lat": 9.61666,
    "lng": 124.301366
  },
  {
    "dockingId": 399,
    "name": "Glendale",
    "city": "Chernyakhovsk",
    "bikes": 155,
    "capacity": 195,
    "active": false,
    "lat": 54.6437754,
    "lng": 21.780179
  },
  {
    "dockingId": 400,
    "name": "Drewry",
    "city": "San Carlos",
    "bikes": 162,
    "capacity": 184,
    "active": true,
    "lat": 8.797145,
    "lng": -75.698571
  },
  {
    "dockingId": 401,
    "name": "Reinke",
    "city": "Salingogan",
    "bikes": 145,
    "capacity": 181,
    "active": true,
    "lat": 13.434798,
    "lng": 123.1899735
  },
  {
    "dockingId": 402,
    "name": "Pierstorff",
    "city": "Pamakayo",
    "bikes": 54,
    "capacity": 84,
    "active": true,
    "lat": -8.4508069,
    "lng": 122.9860159
  },
  {
    "dockingId": 403,
    "name": "Russell",
    "city": "Messina",
    "bikes": 200,
    "capacity": 200,
    "active": true,
    "lat": -22.3812506,
    "lng": 30.0318547
  },
  {
    "dockingId": 404,
    "name": "Summit",
    "city": "Dharān Bāzār",
    "bikes": 166,
    "capacity": 167,
    "active": false,
    "lat": 26.7943861,
    "lng": 87.2817272
  },
  {
    "dockingId": 405,
    "name": "Northview",
    "city": "Revolucion",
    "bikes": 99,
    "capacity": 105,
    "active": true,
    "lat": 19.4386048,
    "lng": -99.1034242
  },
  {
    "dockingId": 406,
    "name": "Harbort",
    "city": "Huayuan",
    "bikes": 22,
    "capacity": 110,
    "active": false,
    "lat": 28.572029,
    "lng": 109.482078
  },
  {
    "dockingId": 407,
    "name": "Saint Paul",
    "city": "Keswick",
    "bikes": 30,
    "capacity": 119,
    "active": false,
    "lat": 44.2298189,
    "lng": -79.4619506
  },
  {
    "dockingId": 408,
    "name": "Bellgrove",
    "city": "Vichadero",
    "bikes": 199,
    "capacity": 200,
    "active": true,
    "lat": -31.7790432,
    "lng": -54.6945328
  },
  {
    "dockingId": 409,
    "name": "Pleasure",
    "city": "Stockholm",
    "bikes": 61,
    "capacity": 105,
    "active": true,
    "lat": 47.0203207,
    "lng": -68.1435046
  },
  {
    "dockingId": 410,
    "name": "Stephen",
    "city": "Whittlesea",
    "bikes": 80,
    "capacity": 165,
    "active": true,
    "lat": -32.2002692,
    "lng": 26.8115141
  },
  {
    "dockingId": 411,
    "name": "Northridge",
    "city": "Cértegui",
    "bikes": 6,
    "capacity": 105,
    "active": false,
    "lat": 5.40004,
    "lng": -76.60003
  },
  {
    "dockingId": 412,
    "name": "Chinook",
    "city": "Orleans",
    "bikes": 179,
    "capacity": 195,
    "active": true,
    "lat": -28.3031653,
    "lng": -49.3450112
  },
  {
    "dockingId": 413,
    "name": "Thompson",
    "city": "Haoping",
    "bikes": 22,
    "capacity": 135,
    "active": true,
    "lat": 32.820372,
    "lng": 107.369453
  },
  {
    "dockingId": 414,
    "name": "Lakewood",
    "city": "Deba Habe",
    "bikes": 16,
    "capacity": 67,
    "active": false,
    "lat": 10.2039899,
    "lng": 11.38861
  },
  {
    "dockingId": 415,
    "name": "Glendale",
    "city": "Wojnicz",
    "bikes": 149,
    "capacity": 176,
    "active": false,
    "lat": 49.9579835,
    "lng": 20.8378422
  },
  {
    "dockingId": 416,
    "name": "Dovetail",
    "city": "Ciawi",
    "bikes": 10,
    "capacity": 114,
    "active": true,
    "lat": -6.712398,
    "lng": 106.8945456
  },
  {
    "dockingId": 417,
    "name": "Dexter",
    "city": "Dapo",
    "bikes": 141,
    "capacity": 198,
    "active": false,
    "lat": 25.6759249,
    "lng": 103.6645428
  },
  {
    "dockingId": 418,
    "name": "Shelley",
    "city": "José de Freitas",
    "bikes": 193,
    "capacity": 197,
    "active": false,
    "lat": -4.6722064,
    "lng": -42.4724578
  },
  {
    "dockingId": 419,
    "name": "Merchant",
    "city": "Baardheere",
    "bikes": 135,
    "capacity": 200,
    "active": true,
    "lat": 2.3390467,
    "lng": 42.2880059
  },
  {
    "dockingId": 420,
    "name": "Thierer",
    "city": "Juazeiro do Norte",
    "bikes": 137,
    "capacity": 181,
    "active": false,
    "lat": -7.2284727,
    "lng": -39.3121233
  },
  {
    "dockingId": 421,
    "name": "Tennessee",
    "city": "Pengulu",
    "bikes": 1,
    "capacity": 170,
    "active": false,
    "lat": -6.9890654,
    "lng": 112.5639934
  },
  {
    "dockingId": 422,
    "name": "Old Shore",
    "city": "Wuyang",
    "bikes": 198,
    "capacity": 200,
    "active": true,
    "lat": 33.437877,
    "lng": 113.609286
  },
  {
    "dockingId": 423,
    "name": "Corry",
    "city": "Liješnica",
    "bikes": 88,
    "capacity": 103,
    "active": true,
    "lat": 44.5241143,
    "lng": 18.0994197
  },
  {
    "dockingId": 424,
    "name": "Ridge Oak",
    "city": "Sindangrasa",
    "bikes": 118,
    "capacity": 143,
    "active": true,
    "lat": -6.6359299,
    "lng": 106.8370122
  },
  {
    "dockingId": 425,
    "name": "Vermont",
    "city": "Santo Domingo",
    "bikes": 170,
    "capacity": 184,
    "active": true,
    "lat": 13.2317498,
    "lng": 123.7702587
  },
  {
    "dockingId": 426,
    "name": "Claremont",
    "city": "General Pinedo",
    "bikes": 23,
    "capacity": 84,
    "active": true,
    "lat": -34.679347,
    "lng": -58.3762722
  },
  {
    "dockingId": 427,
    "name": "Pearson",
    "city": "Al Mukallā",
    "bikes": 74,
    "capacity": 104,
    "active": false,
    "lat": 14.5404328,
    "lng": 49.127197
  },
  {
    "dockingId": 428,
    "name": "Emmet",
    "city": "Babao",
    "bikes": 43,
    "capacity": 133,
    "active": true,
    "lat": 39.3240601,
    "lng": -77.3485436
  },
  {
    "dockingId": 429,
    "name": "Canary",
    "city": "Chiantla",
    "bikes": 114,
    "capacity": 134,
    "active": true,
    "lat": 15.3549925,
    "lng": -91.458364
  },
  {
    "dockingId": 430,
    "name": "Warbler",
    "city": "Georgiyevskaya",
    "bikes": 81,
    "capacity": 129,
    "active": false,
    "lat": 55.1067515,
    "lng": 82.9132833
  },
  {
    "dockingId": 431,
    "name": "Havey",
    "city": "Lelystad",
    "bikes": 31,
    "capacity": 68,
    "active": true,
    "lat": 52.5077777,
    "lng": 5.4757709
  },
  {
    "dockingId": 432,
    "name": "Burning Wood",
    "city": "Lovrenc na Pohorju",
    "bikes": 192,
    "capacity": 200,
    "active": true,
    "lat": 46.5402775,
    "lng": 15.3884817
  },
  {
    "dockingId": 433,
    "name": "Sutteridge",
    "city": "Falun",
    "bikes": 174,
    "capacity": 189,
    "active": false,
    "lat": 60.6152048,
    "lng": 15.6527231
  },
  {
    "dockingId": 434,
    "name": "Carioca",
    "city": "Chengnan",
    "bikes": 128,
    "capacity": 128,
    "active": false,
    "lat": 29.270311,
    "lng": 88.880492
  },
  {
    "dockingId": 435,
    "name": "Mosinee",
    "city": "Malayal",
    "bikes": 52,
    "capacity": 104,
    "active": true,
    "lat": 12.8513784,
    "lng": 121.4666549
  },
  {
    "dockingId": 436,
    "name": "Mosinee",
    "city": "Aoqiao",
    "bikes": 19,
    "capacity": 199,
    "active": true,
    "lat": 31.364902,
    "lng": 108.249509
  },
  {
    "dockingId": 437,
    "name": "Dunning",
    "city": "Rossosh’",
    "bikes": 31,
    "capacity": 71,
    "active": false,
    "lat": 50.1987725,
    "lng": 39.5632497
  },
  {
    "dockingId": 438,
    "name": "Eggendart",
    "city": "Cafe",
    "bikes": 15,
    "capacity": 173,
    "active": false,
    "lat": 14.554384,
    "lng": 121.0460866
  },
  {
    "dockingId": 439,
    "name": "Aberg",
    "city": "San Carlos",
    "bikes": 78,
    "capacity": 139,
    "active": true,
    "lat": -36.42615,
    "lng": -71.9708343
  },
  {
    "dockingId": 440,
    "name": "Roxbury",
    "city": "Bąków",
    "bikes": 28,
    "capacity": 100,
    "active": false,
    "lat": 50.9831778,
    "lng": 18.3083298
  },
  {
    "dockingId": 441,
    "name": "Esker",
    "city": "Korfovskiy",
    "bikes": 158,
    "capacity": 200,
    "active": true,
    "lat": 48.2216224,
    "lng": 135.0579895
  },
  {
    "dockingId": 442,
    "name": "Bluejay",
    "city": "Passo Fundo",
    "bikes": 111,
    "capacity": 146,
    "active": true,
    "lat": -28.2674857,
    "lng": -52.4626809
  },
  {
    "dockingId": 443,
    "name": "Chive",
    "city": "Lantian",
    "bikes": 34,
    "capacity": 88,
    "active": true,
    "lat": 34.151624,
    "lng": 109.323479
  },
  {
    "dockingId": 444,
    "name": "Hintze",
    "city": "Changfeng",
    "bikes": 197,
    "capacity": 197,
    "active": false,
    "lat": 32.478018,
    "lng": 117.167563
  },
  {
    "dockingId": 445,
    "name": "Sunfield",
    "city": "Beigucheng",
    "bikes": 198,
    "capacity": 200,
    "active": false,
    "lat": 35.86983,
    "lng": 117.197212
  },
  {
    "dockingId": 447,
    "name": "American",
    "city": "Wangba",
    "bikes": 182,
    "capacity": 183,
    "active": false,
    "lat": 22.837926,
    "lng": 108.319371
  },
  {
    "dockingId": 448,
    "name": "Dwight",
    "city": "Montluel",
    "bikes": 99,
    "capacity": 161,
    "active": false,
    "lat": 45.8359543,
    "lng": 5.0634248
  },
  {
    "dockingId": 449,
    "name": "Sage",
    "city": "Kovrov",
    "bikes": 82,
    "capacity": 88,
    "active": true,
    "lat": 55.5808883,
    "lng": 42.0289058
  },
  {
    "dockingId": 450,
    "name": "Orin",
    "city": "Taiping",
    "bikes": 63,
    "capacity": 102,
    "active": false,
    "lat": 53.3004898,
    "lng": -6.2634596
  },
  {
    "dockingId": 451,
    "name": "Sauthoff",
    "city": "Sucre",
    "bikes": 147,
    "capacity": 148,
    "active": false,
    "lat": -1.2782708,
    "lng": -80.4243066
  },
  {
    "dockingId": 452,
    "name": "Autumn Leaf",
    "city": "Meicheng",
    "bikes": 189,
    "capacity": 199,
    "active": false,
    "lat": 28.133945,
    "lng": 111.656407
  },
  {
    "dockingId": 453,
    "name": "Forster",
    "city": "Göteborg",
    "bikes": 17,
    "capacity": 18,
    "active": false,
    "lat": 57.6597922,
    "lng": 12.0140077
  },
  {
    "dockingId": 454,
    "name": "International",
    "city": "Tekeli",
    "bikes": 26,
    "capacity": 161,
    "active": true,
    "lat": 44.8601051,
    "lng": 78.7628605
  },
  {
    "dockingId": 455,
    "name": "Leroy",
    "city": "Ljungskile",
    "bikes": 8,
    "capacity": 20,
    "active": false,
    "lat": 58.1858939,
    "lng": 11.9854751
  },
  {
    "dockingId": 456,
    "name": "Fuller",
    "city": "Núi Đối",
    "bikes": 76,
    "capacity": 101,
    "active": true,
    "lat": 20.7526658,
    "lng": 106.6718702
  },
  {
    "dockingId": 458,
    "name": "Lake View",
    "city": "San Martín",
    "bikes": 185,
    "capacity": 188,
    "active": false,
    "lat": -34.5458354,
    "lng": -58.562848
  },
  {
    "dockingId": 459,
    "name": "3rd",
    "city": "Tomteboda",
    "bikes": 66,
    "capacity": 196,
    "active": false,
    "lat": 59.3500072,
    "lng": 18.0242499
  },
  {
    "dockingId": 460,
    "name": "Waywood",
    "city": "Maoya",
    "bikes": 167,
    "capacity": 178,
    "active": false,
    "lat": 43.785358,
    "lng": 126.6858739
  },
  {
    "dockingId": 461,
    "name": "Atwood",
    "city": "Maple Plain",
    "bikes": 106,
    "capacity": 185,
    "active": false,
    "lat": 45.01,
    "lng": -93.65
  },
  {
    "dockingId": 462,
    "name": "Reinke",
    "city": "Xishan",
    "bikes": 198,
    "capacity": 200,
    "active": true,
    "lat": 25.038296,
    "lng": 102.664376
  },
  {
    "dockingId": 463,
    "name": "Clove",
    "city": "Fengmu",
    "bikes": 26,
    "capacity": 194,
    "active": true,
    "lat": 19.214452,
    "lng": 110.019489
  },
  {
    "dockingId": 464,
    "name": "Farwell",
    "city": "Paris 12",
    "bikes": 58,
    "capacity": 148,
    "active": false,
    "lat": 43.4945737,
    "lng": 5.8978018
  },
  {
    "dockingId": 465,
    "name": "Fieldstone",
    "city": "Konin",
    "bikes": 52,
    "capacity": 136,
    "active": true,
    "lat": 52.2572052,
    "lng": 18.3266994
  },
  {
    "dockingId": 466,
    "name": "Westerfield",
    "city": "Trelleborg",
    "bikes": 56,
    "capacity": 90,
    "active": false,
    "lat": 55.376816,
    "lng": 13.1536197
  },
  {
    "dockingId": 467,
    "name": "East",
    "city": "Macheng",
    "bikes": 174,
    "capacity": 191,
    "active": false,
    "lat": 31.172739,
    "lng": 115.008163
  },
  {
    "dockingId": 468,
    "name": "Superior",
    "city": "Yashkul’",
    "bikes": 73,
    "capacity": 83,
    "active": true,
    "lat": 46.1740537,
    "lng": 45.3471492
  },
  {
    "dockingId": 469,
    "name": "Ridgeway",
    "city": "Dubti",
    "bikes": 92,
    "capacity": 123,
    "active": false,
    "lat": 11.7367959,
    "lng": 41.0822359
  },
  {
    "dockingId": 470,
    "name": "Shopko",
    "city": "Épinal",
    "bikes": 12,
    "capacity": 15,
    "active": true,
    "lat": 48.2576572,
    "lng": 6.4140214
  },
  {
    "dockingId": 471,
    "name": "Nobel",
    "city": "Gorjani",
    "bikes": 47,
    "capacity": 54,
    "active": true,
    "lat": 45.3940354,
    "lng": 18.3826102
  },
  {
    "dockingId": 472,
    "name": "Melrose",
    "city": "Kota Kinabalu",
    "bikes": 171,
    "capacity": 185,
    "active": true,
    "lat": 5.9840985,
    "lng": 116.0761121
  },
  {
    "dockingId": 473,
    "name": "Karstens",
    "city": "Tame",
    "bikes": 105,
    "capacity": 170,
    "active": false,
    "lat": 6.2962841,
    "lng": -71.9045649
  },
  {
    "dockingId": 474,
    "name": "Summerview",
    "city": "Kazo",
    "bikes": 43,
    "capacity": 153,
    "active": true,
    "lat": 36.065787,
    "lng": 139.5560067
  },
  {
    "dockingId": 475,
    "name": "Talisman",
    "city": "Timaru",
    "bikes": 58,
    "capacity": 167,
    "active": true,
    "lat": -44.394663,
    "lng": 171.256569
  },
  {
    "dockingId": 476,
    "name": "Bartillon",
    "city": "Abovyan",
    "bikes": 81,
    "capacity": 90,
    "active": false,
    "lat": 40.2715286,
    "lng": 44.633383
  },
  {
    "dockingId": 477,
    "name": "Dixon",
    "city": "Mbouda",
    "bikes": 119,
    "capacity": 159,
    "active": true,
    "lat": 5.623505,
    "lng": 10.2544044
  },
  {
    "dockingId": 478,
    "name": "Coleman",
    "city": "Hechuan",
    "bikes": 50,
    "capacity": 112,
    "active": false,
    "lat": 29.972084,
    "lng": 106.27613
  },
  {
    "dockingId": 480,
    "name": "3rd",
    "city": "Tangjian",
    "bikes": 97,
    "capacity": 122,
    "active": false,
    "lat": 34.124484,
    "lng": 119.007287
  },
  {
    "dockingId": 481,
    "name": "Grim",
    "city": "Skhodnya",
    "bikes": 136,
    "capacity": 177,
    "active": false,
    "lat": 55.9437901,
    "lng": 37.315783
  },
  {
    "dockingId": 482,
    "name": "Northport",
    "city": "Ihosy",
    "bikes": 40,
    "capacity": 152,
    "active": false,
    "lat": -22.4008873,
    "lng": 46.127902
  },
  {
    "dockingId": 483,
    "name": "Brentwood",
    "city": "Byahoml’",
    "bikes": 31,
    "capacity": 193,
    "active": false,
    "lat": 54.7318321,
    "lng": 28.0605963
  },
  {
    "dockingId": 484,
    "name": "Rusk",
    "city": "Svyetlahorsk",
    "bikes": 102,
    "capacity": 109,
    "active": false,
    "lat": 52.6266995,
    "lng": 29.7490257
  },
  {
    "dockingId": 485,
    "name": "Kennedy",
    "city": "Chenxikou",
    "bikes": 43,
    "capacity": 105,
    "active": false,
    "lat": 38.103487,
    "lng": 117.742101
  },
  {
    "dockingId": 486,
    "name": "Ridgeway",
    "city": "Fengxizhai",
    "bikes": 44,
    "capacity": 149,
    "active": true,
    "lat": 39.7467369,
    "lng": 98.5069862
  },
  {
    "dockingId": 487,
    "name": "Delladonna",
    "city": "Sinargalih",
    "bikes": 198,
    "capacity": 199,
    "active": false,
    "lat": -7.2578991,
    "lng": 107.8632023
  },
  {
    "dockingId": 488,
    "name": "Fulton",
    "city": "Huangpu",
    "bikes": 45,
    "capacity": 112,
    "active": false,
    "lat": 23.106401,
    "lng": 113.459749
  },
  {
    "dockingId": 489,
    "name": "Shoshone",
    "city": "Duas Igrejas",
    "bikes": 182,
    "capacity": 185,
    "active": false,
    "lat": 40.9522224,
    "lng": -8.4649248
  },
  {
    "dockingId": 490,
    "name": "7th",
    "city": "Babirik",
    "bikes": 114,
    "capacity": 116,
    "active": true,
    "lat": -2.5063808,
    "lng": 115.1296249
  },
  {
    "dockingId": 491,
    "name": "Tony",
    "city": "Levallois-Perret",
    "bikes": 96,
    "capacity": 106,
    "active": false,
    "lat": 48.8904258,
    "lng": 2.2936854
  },
  {
    "dockingId": 492,
    "name": "Vidon",
    "city": "Shatian",
    "bikes": 91,
    "capacity": 109,
    "active": true,
    "lat": 22.919769,
    "lng": 113.618216
  },
  {
    "dockingId": 493,
    "name": "Sunnyside",
    "city": "Delareyville",
    "bikes": 53,
    "capacity": 96,
    "active": true,
    "lat": -26.69475,
    "lng": 25.4735999
  },
  {
    "dockingId": 494,
    "name": "Delladonna",
    "city": "Dhangarhi",
    "bikes": 0,
    "capacity": 92,
    "active": false,
    "lat": 28.685244,
    "lng": 80.621591
  },
  {
    "dockingId": 495,
    "name": "Meadow Ridge",
    "city": "Jindui",
    "bikes": 149,
    "capacity": 159,
    "active": false,
    "lat": 31.16899,
    "lng": 121.424679
  },
  {
    "dockingId": 496,
    "name": "Jay",
    "city": "Karangpaningal",
    "bikes": 128,
    "capacity": 172,
    "active": false,
    "lat": -7.4400668,
    "lng": 108.6561601
  },
  {
    "dockingId": 497,
    "name": "Basil",
    "city": "Cotorra",
    "bikes": 57,
    "capacity": 107,
    "active": false,
    "lat": 9.039263,
    "lng": -75.790511
  },
  {
    "dockingId": 498,
    "name": "Melvin",
    "city": "Akhfennir",
    "bikes": 74,
    "capacity": 97,
    "active": false,
    "lat": 28.0942907,
    "lng": -12.050407
  },
  {
    "dockingId": 499,
    "name": "Merchant",
    "city": "Fargo",
    "bikes": 52,
    "capacity": 83,
    "active": false,
    "lat": 46.8843099,
    "lng": -96.7847834
  },
  {
    "dockingId": 500,
    "name": "Elmside",
    "city": "Debrecen",
    "bikes": 49,
    "capacity": 146,
    "active": true,
    "lat": 47.5962342,
    "lng": 21.6426843
  },
  {
    "dockingId": 501,
    "name": "Truax",
    "city": "Alor Setar",
    "bikes": 8,
    "capacity": 107,
    "active": false,
    "lat": 6.1191928,
    "lng": 100.3707441
  },
  {
    "dockingId": 502,
    "name": "Maple",
    "city": "San Rafael",
    "bikes": 19,
    "capacity": 171,
    "active": true,
    "lat": 38.02,
    "lng": -122.55
  },
  {
    "dockingId": 503,
    "name": "Transport",
    "city": "Depok",
    "bikes": 193,
    "capacity": 194,
    "active": false,
    "lat": -6.4024844,
    "lng": 106.7942405
  },
  {
    "dockingId": 504,
    "name": "Declaration",
    "city": "Montes Claros",
    "bikes": 119,
    "capacity": 165,
    "active": false,
    "lat": -16.7159055,
    "lng": -43.8616129
  },
  {
    "dockingId": 505,
    "name": "Clarendon",
    "city": "Midões",
    "bikes": 57,
    "capacity": 145,
    "active": false,
    "lat": 41.5023719,
    "lng": -8.5818392
  },
  {
    "dockingId": 506,
    "name": "Quincy",
    "city": "Zagreb",
    "bikes": 175,
    "capacity": 195,
    "active": true,
    "lat": 45.7307005,
    "lng": 15.9513163
  },
  {
    "dockingId": 507,
    "name": "Iowa",
    "city": "Xinglong",
    "bikes": 29,
    "capacity": 55,
    "active": true,
    "lat": 40.417358,
    "lng": 117.500558
  },
  {
    "dockingId": 508,
    "name": "Dovetail",
    "city": "Stráž nad Nisou",
    "bikes": 113,
    "capacity": 124,
    "active": true,
    "lat": 50.7911439,
    "lng": 15.0266516
  },
  {
    "dockingId": 509,
    "name": "Mccormick",
    "city": "Ţūbās",
    "bikes": 3,
    "capacity": 40,
    "active": true,
    "lat": 32.321086,
    "lng": 35.369953
  },
  {
    "dockingId": 510,
    "name": "Orin",
    "city": "Masinloc",
    "bikes": 196,
    "capacity": 197,
    "active": true,
    "lat": 15.537073,
    "lng": 119.950207
  },
  {
    "dockingId": 511,
    "name": "Sommers",
    "city": "Chiri-Yurt",
    "bikes": 140,
    "capacity": 195,
    "active": false,
    "lat": 43.0865623,
    "lng": 45.7442387
  },
  {
    "dockingId": 512,
    "name": "Reinke",
    "city": "Tessaoua",
    "bikes": 41,
    "capacity": 75,
    "active": true,
    "lat": 13.7558622,
    "lng": 7.986535
  },
  {
    "dockingId": 513,
    "name": "Pleasure",
    "city": "Lat Lum Kaeo",
    "bikes": 121,
    "capacity": 197,
    "active": false,
    "lat": 14.0032361,
    "lng": 100.4059456
  },
  {
    "dockingId": 514,
    "name": "Jenifer",
    "city": "Xin’an",
    "bikes": 114,
    "capacity": 200,
    "active": false,
    "lat": 34.728584,
    "lng": 112.132488
  },
  {
    "dockingId": 515,
    "name": "Paget",
    "city": "Sauce",
    "bikes": 61,
    "capacity": 153,
    "active": false,
    "lat": -34.6488719,
    "lng": -56.0668126
  },
  {
    "dockingId": 516,
    "name": "Delaware",
    "city": "Curuggoong",
    "bikes": 54,
    "capacity": 128,
    "active": true,
    "lat": -6.2152002,
    "lng": 106.0023054
  },
  {
    "dockingId": 517,
    "name": "Briar Crest",
    "city": "Tassin-la-Demi-Lune",
    "bikes": 101,
    "capacity": 109,
    "active": false,
    "lat": 45.764339,
    "lng": 4.768427
  },
  {
    "dockingId": 518,
    "name": "Helena",
    "city": "Nariño",
    "bikes": 154,
    "capacity": 194,
    "active": false,
    "lat": 4.398278,
    "lng": -74.828718
  },
  {
    "dockingId": 519,
    "name": "Fairfield",
    "city": "Fukuma",
    "bikes": 141,
    "capacity": 155,
    "active": false,
    "lat": 34.0753818,
    "lng": 131.2449277
  },
  {
    "dockingId": 520,
    "name": "Surrey",
    "city": "Sanquan",
    "bikes": 39,
    "capacity": 195,
    "active": false,
    "lat": 39.9474817,
    "lng": 116.4689261
  },
  {
    "dockingId": 521,
    "name": "Red Cloud",
    "city": "Ḩarīb",
    "bikes": 171,
    "capacity": 186,
    "active": true,
    "lat": 14.92653,
    "lng": 45.507141
  },
  {
    "dockingId": 522,
    "name": "Prentice",
    "city": "Qijiazuo",
    "bikes": 21,
    "capacity": 175,
    "active": false,
    "lat": 35.215892,
    "lng": 113.241823
  },
  {
    "dockingId": 523,
    "name": "Corry",
    "city": "Kuta",
    "bikes": 58,
    "capacity": 90,
    "active": true,
    "lat": -8.7223957,
    "lng": 115.1767095
  },
  {
    "dockingId": 524,
    "name": "Loomis",
    "city": "Chur",
    "bikes": 89,
    "capacity": 161,
    "active": true,
    "lat": 46.8615704,
    "lng": 9.5262115
  },
  {
    "dockingId": 525,
    "name": "Arkansas",
    "city": "Alagoa Grande",
    "bikes": 6,
    "capacity": 181,
    "active": false,
    "lat": -7.0787824,
    "lng": -35.5876697
  },
  {
    "dockingId": 526,
    "name": "Fair Oaks",
    "city": "Juan N Alvarez",
    "bikes": 183,
    "capacity": 189,
    "active": false,
    "lat": 18.3549366,
    "lng": -99.5360598
  },
  {
    "dockingId": 527,
    "name": "5th",
    "city": "Laurel",
    "bikes": 150,
    "capacity": 199,
    "active": true,
    "lat": 39.062982,
    "lng": -76.8391683
  },
  {
    "dockingId": 528,
    "name": "Mayer",
    "city": "Jincheng",
    "bikes": 107,
    "capacity": 176,
    "active": true,
    "lat": 35.490701,
    "lng": 112.851831
  },
  {
    "dockingId": 529,
    "name": "Waubesa",
    "city": "Sabá",
    "bikes": 18,
    "capacity": 50,
    "active": false,
    "lat": 15.5211125,
    "lng": -86.2209316
  },
  {
    "dockingId": 530,
    "name": "Mcguire",
    "city": "Baykonyr",
    "bikes": 135,
    "capacity": 174,
    "active": false,
    "lat": 45.6232258,
    "lng": 63.3139829
  },
  {
    "dockingId": 531,
    "name": "Longview",
    "city": "Xietang",
    "bikes": 47,
    "capacity": 55,
    "active": true,
    "lat": 30.938787,
    "lng": 120.891293
  },
  {
    "dockingId": 532,
    "name": "Old Shore",
    "city": "Klau",
    "bikes": 16,
    "capacity": 175,
    "active": false,
    "lat": -1.2088413,
    "lng": 116.8776192
  },
  {
    "dockingId": 533,
    "name": "Lawn",
    "city": "Moste",
    "bikes": 108,
    "capacity": 155,
    "active": false,
    "lat": 46.2003906,
    "lng": 14.5829648
  },
  {
    "dockingId": 534,
    "name": "Blaine",
    "city": "Kariya",
    "bikes": 130,
    "capacity": 153,
    "active": false,
    "lat": 37.841046,
    "lng": 140.5203882
  },
  {
    "dockingId": 535,
    "name": "Ronald Regan",
    "city": "Dagang",
    "bikes": 77,
    "capacity": 103,
    "active": false,
    "lat": 33.189192,
    "lng": 120.103473
  },
  {
    "dockingId": 536,
    "name": "Packers",
    "city": "Manacapuru",
    "bikes": 86,
    "capacity": 115,
    "active": false,
    "lat": -3.3419323,
    "lng": -60.8609358
  },
  {
    "dockingId": 537,
    "name": "Fordem",
    "city": "Khasht’arrak",
    "bikes": 22,
    "capacity": 89,
    "active": true,
    "lat": 40.9370022,
    "lng": 45.1804861
  },
  {
    "dockingId": 538,
    "name": "Memorial",
    "city": "Lavras da Mangabeira",
    "bikes": 91,
    "capacity": 189,
    "active": false,
    "lat": -6.7821701,
    "lng": -39.0293884
  },
  {
    "dockingId": 539,
    "name": "Bluestem",
    "city": "Clermont-Ferrand",
    "bikes": 141,
    "capacity": 162,
    "active": true,
    "lat": 45.0386871,
    "lng": 3.103119
  },
  {
    "dockingId": 540,
    "name": "Logan",
    "city": "Alès",
    "bikes": 72,
    "capacity": 154,
    "active": false,
    "lat": 44.0570174,
    "lng": 4.0057868
  },
  {
    "dockingId": 541,
    "name": "Garrison",
    "city": "Ābyek",
    "bikes": 26,
    "capacity": 72,
    "active": false,
    "lat": 36.040428,
    "lng": 50.5446161
  },
  {
    "dockingId": 542,
    "name": "Northland",
    "city": "Chanika",
    "bikes": 106,
    "capacity": 137,
    "active": true,
    "lat": -6.8928049,
    "lng": 39.1803741
  },
  {
    "dockingId": 543,
    "name": "Swallow",
    "city": "Koszyce Wielkie",
    "bikes": 10,
    "capacity": 57,
    "active": true,
    "lat": 49.9776657,
    "lng": 20.9421091
  },
  {
    "dockingId": 544,
    "name": "Welch",
    "city": "Tintafor",
    "bikes": 50,
    "capacity": 191,
    "active": true,
    "lat": 8.6286447,
    "lng": -13.2158557
  },
  {
    "dockingId": 545,
    "name": "Lighthouse Bay",
    "city": "Lipu",
    "bikes": 34,
    "capacity": 147,
    "active": true,
    "lat": 24.488342,
    "lng": 110.395104
  },
  {
    "dockingId": 546,
    "name": "Cody",
    "city": "Municipio de Copacabana",
    "bikes": 33,
    "capacity": 127,
    "active": true,
    "lat": 6.323976,
    "lng": -75.4985521
  },
  {
    "dockingId": 547,
    "name": "Elka",
    "city": "Belgrade",
    "bikes": 172,
    "capacity": 197,
    "active": false,
    "lat": 44.786568,
    "lng": 20.4489216
  },
  {
    "dockingId": 548,
    "name": "Boyd",
    "city": "Shankeng",
    "bikes": 130,
    "capacity": 136,
    "active": false,
    "lat": 35.8939566,
    "lng": 117.9249002
  },
  {
    "dockingId": 549,
    "name": "Dixon",
    "city": "Sayama",
    "bikes": 45,
    "capacity": 198,
    "active": false,
    "lat": 34.0313411,
    "lng": 131.3494901
  },
  {
    "dockingId": 550,
    "name": "Nancy",
    "city": "Johor Bahru",
    "bikes": 120,
    "capacity": 139,
    "active": true,
    "lat": 1.5484759,
    "lng": 103.7983752
  },
  {
    "dockingId": 551,
    "name": "Dayton",
    "city": "Jinping",
    "bikes": 161,
    "capacity": 188,
    "active": true,
    "lat": 23.365556,
    "lng": 116.70345
  },
  {
    "dockingId": 552,
    "name": "Bluestem",
    "city": "Poitiers",
    "bikes": 32,
    "capacity": 59,
    "active": false,
    "lat": 46.5838069,
    "lng": 0.3350126
  },
  {
    "dockingId": 553,
    "name": "Grasskamp",
    "city": "Masma",
    "bikes": 63,
    "capacity": 82,
    "active": true,
    "lat": -11.7843129,
    "lng": -75.4242758
  },
  {
    "dockingId": 554,
    "name": "Melby",
    "city": "Għaxaq",
    "bikes": 165,
    "capacity": 184,
    "active": false,
    "lat": 35.849231,
    "lng": 14.5179316
  },
  {
    "dockingId": 555,
    "name": "David",
    "city": "La Purisima",
    "bikes": 134,
    "capacity": 155,
    "active": false,
    "lat": 19.379122,
    "lng": -99.1097687
  },
  {
    "dockingId": 556,
    "name": "Marquette",
    "city": "Lagunas",
    "bikes": 15,
    "capacity": 126,
    "active": true,
    "lat": -5.2368931,
    "lng": -75.6557206
  },
  {
    "dockingId": 557,
    "name": "Shasta",
    "city": "Shangbahe",
    "bikes": 158,
    "capacity": 189,
    "active": true,
    "lat": 31.2303904,
    "lng": 121.4737021
  },
  {
    "dockingId": 558,
    "name": "Cody",
    "city": "Clermont-Ferrand",
    "bikes": 193,
    "capacity": 195,
    "active": false,
    "lat": 45.788378,
    "lng": 3.1331436
  },
  {
    "dockingId": 559,
    "name": "Fremont",
    "city": "Utajärvi",
    "bikes": 27,
    "capacity": 59,
    "active": true,
    "lat": 64.8923524,
    "lng": 27.5304357
  },
  {
    "dockingId": 560,
    "name": "Moulton",
    "city": "Khūgyāṉī",
    "bikes": 92,
    "capacity": 128,
    "active": false,
    "lat": 34.2292129,
    "lng": 70.1932084
  },
  {
    "dockingId": 561,
    "name": "Marquette",
    "city": "Mataigou",
    "bikes": 42,
    "capacity": 51,
    "active": false,
    "lat": 34.6911,
    "lng": 106.221144
  },
  {
    "dockingId": 562,
    "name": "Mcguire",
    "city": "Sāh",
    "bikes": 13,
    "capacity": 70,
    "active": false,
    "lat": 15.479529,
    "lng": 44.2166214
  },
  {
    "dockingId": 563,
    "name": "Blackbird",
    "city": "Nangerang",
    "bikes": 0,
    "capacity": 151,
    "active": true,
    "lat": -6.6970726,
    "lng": 107.5357224
  },
  {
    "dockingId": 564,
    "name": "Killdeer",
    "city": "Houston",
    "bikes": 141,
    "capacity": 152,
    "active": false,
    "lat": 32.9536923,
    "lng": -96.816156
  },
  {
    "dockingId": 565,
    "name": "Onsgard",
    "city": "Dibulla",
    "bikes": 156,
    "capacity": 175,
    "active": false,
    "lat": 11.2428856,
    "lng": -73.4062342
  },
  {
    "dockingId": 566,
    "name": "Sunbrook",
    "city": "Xiaohe",
    "bikes": 62,
    "capacity": 195,
    "active": false,
    "lat": 35.202503,
    "lng": 102.521807
  },
  {
    "dockingId": 567,
    "name": "Claremont",
    "city": "Balta",
    "bikes": 68,
    "capacity": 74,
    "active": false,
    "lat": 47.9370871,
    "lng": 29.6288401
  },
  {
    "dockingId": 568,
    "name": "American",
    "city": "Sawang Daen Din",
    "bikes": 108,
    "capacity": 200,
    "active": false,
    "lat": 17.4555679,
    "lng": 103.4627375
  },
  {
    "dockingId": 569,
    "name": "Leroy",
    "city": "Eastern Suburbs Mc",
    "bikes": 124,
    "capacity": 199,
    "active": false,
    "lat": -33.93274,
    "lng": 151.188577
  },
  {
    "dockingId": 570,
    "name": "Golden Leaf",
    "city": "Hacıqabul",
    "bikes": 0,
    "capacity": 139,
    "active": false,
    "lat": 40.039377,
    "lng": 48.9202533
  },
  {
    "dockingId": 571,
    "name": "Moulton",
    "city": "Loangmaka",
    "bikes": 143,
    "capacity": 156,
    "active": true,
    "lat": -8.728779,
    "lng": 116.3928301
  },
  {
    "dockingId": 572,
    "name": "Spenser",
    "city": "Gandong",
    "bikes": 67,
    "capacity": 127,
    "active": false,
    "lat": -7.3966297,
    "lng": 111.5498112
  },
  {
    "dockingId": 573,
    "name": "Tennessee",
    "city": "Molteno",
    "bikes": 14,
    "capacity": 76,
    "active": true,
    "lat": -31.3961762,
    "lng": 26.354462
  },
  {
    "dockingId": 574,
    "name": "Maywood",
    "city": "Ambian",
    "bikes": 16,
    "capacity": 155,
    "active": false,
    "lat": -8.6742387,
    "lng": 115.1647919
  },
  {
    "dockingId": 575,
    "name": "Arkansas",
    "city": "Sifangxi",
    "bikes": 93,
    "capacity": 183,
    "active": false,
    "lat": 29.654069,
    "lng": 110.176918
  },
  {
    "dockingId": 576,
    "name": "Waubesa",
    "city": "Esil",
    "bikes": 38,
    "capacity": 57,
    "active": false,
    "lat": 51.9534228,
    "lng": 66.4121857
  },
  {
    "dockingId": 577,
    "name": "Clove",
    "city": "Garko",
    "bikes": 75,
    "capacity": 84,
    "active": false,
    "lat": 11.5484585,
    "lng": 8.8583309
  },
  {
    "dockingId": 578,
    "name": "Continental",
    "city": "Catende",
    "bikes": 110,
    "capacity": 132,
    "active": true,
    "lat": -8.6741659,
    "lng": -35.7188463
  },
  {
    "dockingId": 579,
    "name": "Maple",
    "city": "Pho Thong",
    "bikes": 94,
    "capacity": 127,
    "active": false,
    "lat": 14.6823992,
    "lng": 100.3722477
  },
  {
    "dockingId": 580,
    "name": "Vernon",
    "city": "Chur",
    "bikes": 23,
    "capacity": 144,
    "active": false,
    "lat": 46.8615704,
    "lng": 9.5262115
  },
  {
    "dockingId": 581,
    "name": "Norway Maple",
    "city": "Mariquita",
    "bikes": 177,
    "capacity": 183,
    "active": true,
    "lat": 5.199505,
    "lng": -74.886835
  },
  {
    "dockingId": 582,
    "name": "Manley",
    "city": "Müllendorf",
    "bikes": 168,
    "capacity": 168,
    "active": true,
    "lat": 49.6769375,
    "lng": 6.1338438
  },
  {
    "dockingId": 583,
    "name": "Maryland",
    "city": "Siayan",
    "bikes": 109,
    "capacity": 115,
    "active": true,
    "lat": 8.2608053,
    "lng": 123.0748243
  },
  {
    "dockingId": 584,
    "name": "Charing Cross",
    "city": "Gavrilov-Yam",
    "bikes": 142,
    "capacity": 166,
    "active": true,
    "lat": 57.2992579,
    "lng": 39.8548496
  },
  {
    "dockingId": 585,
    "name": "5th",
    "city": "Wangjiahe",
    "bikes": 15,
    "capacity": 18,
    "active": false,
    "lat": 31.282291,
    "lng": 116.196278
  },
  {
    "dockingId": 586,
    "name": "Acker",
    "city": "Shuanghe",
    "bikes": 81,
    "capacity": 180,
    "active": false,
    "lat": 44.840524,
    "lng": 82.353656
  },
  {
    "dockingId": 587,
    "name": "Hanover",
    "city": "Golub-Dobrzyń",
    "bikes": 14,
    "capacity": 61,
    "active": true,
    "lat": 53.1137898,
    "lng": 19.0552497
  },
  {
    "dockingId": 588,
    "name": "Moulton",
    "city": "Chaiyo",
    "bikes": 18,
    "capacity": 90,
    "active": true,
    "lat": 14.7147473,
    "lng": 100.4358552
  },
  {
    "dockingId": 589,
    "name": "Bonner",
    "city": "Oak Bay",
    "bikes": 48,
    "capacity": 81,
    "active": false,
    "lat": 48.42647,
    "lng": -123.3227421
  },
  {
    "dockingId": 590,
    "name": "Randy",
    "city": "Thị Trấn Quán Lào",
    "bikes": 81,
    "capacity": 105,
    "active": true,
    "lat": 19.9699898,
    "lng": 105.6515167
  },
  {
    "dockingId": 591,
    "name": "Oak Valley",
    "city": "Nanhe",
    "bikes": 155,
    "capacity": 174,
    "active": true,
    "lat": 37.005017,
    "lng": 114.683863
  },
  {
    "dockingId": 592,
    "name": "Vera",
    "city": "Tarakaniv",
    "bikes": 118,
    "capacity": 142,
    "active": false,
    "lat": 50.3838631,
    "lng": 25.7085224
  },
  {
    "dockingId": 593,
    "name": "Corry",
    "city": "El Llano",
    "bikes": 161,
    "capacity": 171,
    "active": false,
    "lat": 15.1539332,
    "lng": -87.8721602
  },
  {
    "dockingId": 594,
    "name": "Division",
    "city": "Sovetskiy",
    "bikes": 21,
    "capacity": 47,
    "active": false,
    "lat": 61.3602942,
    "lng": 63.5639414
  },
  {
    "dockingId": 595,
    "name": "Moulton",
    "city": "Jutiapa",
    "bikes": 34,
    "capacity": 61,
    "active": true,
    "lat": 14.2926501,
    "lng": -89.8991742
  },
  {
    "dockingId": 596,
    "name": "Dexter",
    "city": "Port Hawkesbury",
    "bikes": 106,
    "capacity": 134,
    "active": false,
    "lat": 45.6152297,
    "lng": -61.3552089
  },
  {
    "dockingId": 597,
    "name": "Anderson",
    "city": "Banjar Batuaji Kaja",
    "bikes": 177,
    "capacity": 199,
    "active": true,
    "lat": -8.6186415,
    "lng": 115.1831787
  },
  {
    "dockingId": 598,
    "name": "Mayer",
    "city": "Frydek",
    "bikes": 19,
    "capacity": 150,
    "active": false,
    "lat": 49.6819305,
    "lng": 18.3673216
  },
  {
    "dockingId": 599,
    "name": "Morrow",
    "city": "Bakersfield",
    "bikes": 27,
    "capacity": 152,
    "active": true,
    "lat": 35.3964972,
    "lng": -118.9819731
  },
  {
    "dockingId": 600,
    "name": "Fisk",
    "city": "Compiègne",
    "bikes": 94,
    "capacity": 135,
    "active": false,
    "lat": 49.395599,
    "lng": 2.789137
  },
  {
    "dockingId": 601,
    "name": "Hovde",
    "city": "Tsévié",
    "bikes": 53,
    "capacity": 169,
    "active": true,
    "lat": 6.4329457,
    "lng": 1.2073261
  },
  {
    "dockingId": 602,
    "name": "Spenser",
    "city": "Jianghu",
    "bikes": 102,
    "capacity": 125,
    "active": false,
    "lat": 33.1401715,
    "lng": 119.7889248
  },
  {
    "dockingId": 603,
    "name": "Carberry",
    "city": "Shiliting",
    "bikes": 184,
    "capacity": 186,
    "active": false,
    "lat": 30.0042226,
    "lng": 120.8646582
  },
  {
    "dockingId": 604,
    "name": "Park Meadow",
    "city": "Sé",
    "bikes": 192,
    "capacity": 200,
    "active": false,
    "lat": 41.0919871,
    "lng": -7.8038268
  },
  {
    "dockingId": 605,
    "name": "Little Fleur",
    "city": "Sartana",
    "bikes": 137,
    "capacity": 174,
    "active": true,
    "lat": 47.1738671,
    "lng": 37.6914764
  },
  {
    "dockingId": 606,
    "name": "2nd",
    "city": "Mvuma",
    "bikes": 150,
    "capacity": 171,
    "active": false,
    "lat": -19.2773694,
    "lng": 30.525031
  },
  {
    "dockingId": 607,
    "name": "5th",
    "city": "Xiatang",
    "bikes": 59,
    "capacity": 135,
    "active": true,
    "lat": 32.197328,
    "lng": 117.210612
  },
  {
    "dockingId": 608,
    "name": "Darwin",
    "city": "Leidian",
    "bikes": 168,
    "capacity": 190,
    "active": false,
    "lat": 30.520783,
    "lng": 120.145342
  },
  {
    "dockingId": 610,
    "name": "Magdeline",
    "city": "Medang",
    "bikes": 181,
    "capacity": 189,
    "active": false,
    "lat": -6.267562,
    "lng": 106.6143944
  },
  {
    "dockingId": 611,
    "name": "Goodland",
    "city": "Qingzhou",
    "bikes": 140,
    "capacity": 176,
    "active": false,
    "lat": 36.684789,
    "lng": 118.479654
  },
  {
    "dockingId": 612,
    "name": "Sundown",
    "city": "Yosowilangun",
    "bikes": 87,
    "capacity": 116,
    "active": true,
    "lat": -8.2361656,
    "lng": 113.2874692
  },
  {
    "dockingId": 613,
    "name": "Blue Bill Park",
    "city": "Campaka",
    "bikes": 83,
    "capacity": 121,
    "active": true,
    "lat": -6.4698493,
    "lng": 107.5150139
  },
  {
    "dockingId": 614,
    "name": "Reindahl",
    "city": "Talalayivka",
    "bikes": 142,
    "capacity": 157,
    "active": false,
    "lat": 50.8424855,
    "lng": 33.1399988
  },
  {
    "dockingId": 615,
    "name": "Lien",
    "city": "Donskoy",
    "bikes": 49,
    "capacity": 182,
    "active": false,
    "lat": 53.9559626,
    "lng": 38.2899306
  },
  {
    "dockingId": 616,
    "name": "Maple Wood",
    "city": "Radekhiv",
    "bikes": 80,
    "capacity": 85,
    "active": true,
    "lat": 50.2836918,
    "lng": 24.6345078
  },
  {
    "dockingId": 617,
    "name": "Maple",
    "city": "Dongba",
    "bikes": 77,
    "capacity": 184,
    "active": true,
    "lat": 26.89023,
    "lng": 100.233878
  },
  {
    "dockingId": 618,
    "name": "Village",
    "city": "Baicun",
    "bikes": 63,
    "capacity": 199,
    "active": false,
    "lat": 32.1049147,
    "lng": 118.7817904
  },
  {
    "dockingId": 619,
    "name": "Little Fleur",
    "city": "Nam Phong",
    "bikes": 129,
    "capacity": 177,
    "active": true,
    "lat": 16.7157136,
    "lng": 102.9205295
  },
  {
    "dockingId": 620,
    "name": "Paget",
    "city": "Zhongba",
    "bikes": 186,
    "capacity": 195,
    "active": false,
    "lat": 29.770279,
    "lng": 84.03153
  },
  {
    "dockingId": 621,
    "name": "Clemons",
    "city": "Íquira",
    "bikes": 153,
    "capacity": 176,
    "active": false,
    "lat": 2.8289721,
    "lng": -75.8301537
  },
  {
    "dockingId": 622,
    "name": "Moose",
    "city": "Fylí",
    "bikes": 23,
    "capacity": 131,
    "active": false,
    "lat": 38.1189564,
    "lng": 23.6561725
  },
  {
    "dockingId": 623,
    "name": "Northview",
    "city": "Varjota",
    "bikes": 22,
    "capacity": 131,
    "active": true,
    "lat": -4.1948081,
    "lng": -40.4760325
  },
  {
    "dockingId": 624,
    "name": "Dovetail",
    "city": "Bununu Dass",
    "bikes": 163,
    "capacity": 199,
    "active": false,
    "lat": 10.0030306,
    "lng": 9.508953
  },
  {
    "dockingId": 625,
    "name": "Eastlawn",
    "city": "Zastávka",
    "bikes": 177,
    "capacity": 182,
    "active": true,
    "lat": 49.1879961,
    "lng": 16.3631011
  },
  {
    "dockingId": 626,
    "name": "Lotheville",
    "city": "Fagersta",
    "bikes": 69,
    "capacity": 151,
    "active": false,
    "lat": 59.9871162,
    "lng": 15.8125817
  },
  {
    "dockingId": 627,
    "name": "Dahle",
    "city": "Nový Hrozenkov",
    "bikes": 184,
    "capacity": 193,
    "active": false,
    "lat": 49.3496761,
    "lng": 18.180271
  },
  {
    "dockingId": 628,
    "name": "Delladonna",
    "city": "Maltahöhe",
    "bikes": 165,
    "capacity": 184,
    "active": false,
    "lat": -24.8380587,
    "lng": 16.9801346
  },
  {
    "dockingId": 629,
    "name": "Shoshone",
    "city": "Shah Alam",
    "bikes": 12,
    "capacity": 186,
    "active": true,
    "lat": 3.0100681,
    "lng": 101.5326734
  },
  {
    "dockingId": 630,
    "name": "Mifflin",
    "city": "Chengxi",
    "bikes": 120,
    "capacity": 145,
    "active": true,
    "lat": 36.628305,
    "lng": 101.765843
  },
  {
    "dockingId": 631,
    "name": "Carpenter",
    "city": "Zhitan",
    "bikes": 144,
    "capacity": 191,
    "active": true,
    "lat": 28.7401,
    "lng": 118.793215
  },
  {
    "dockingId": 632,
    "name": "Fair Oaks",
    "city": "Banjar Batanpoh",
    "bikes": 30,
    "capacity": 87,
    "active": false,
    "lat": -8.675462,
    "lng": 115.2576575
  },
  {
    "dockingId": 633,
    "name": "Golf Course",
    "city": "Langzhong",
    "bikes": 54,
    "capacity": 161,
    "active": false,
    "lat": 31.558356,
    "lng": 106.005046
  },
  {
    "dockingId": 635,
    "name": "Golden Leaf",
    "city": "San Pedro One",
    "bikes": 128,
    "capacity": 169,
    "active": true,
    "lat": 14.0875558,
    "lng": 121.1774182
  },
  {
    "dockingId": 636,
    "name": "Lighthouse Bay",
    "city": "Varnávas",
    "bikes": 142,
    "capacity": 192,
    "active": false,
    "lat": 38.2238615,
    "lng": 23.9232894
  },
  {
    "dockingId": 637,
    "name": "Arrowood",
    "city": "Rossosh’",
    "bikes": 105,
    "capacity": 143,
    "active": false,
    "lat": 50.1987725,
    "lng": 39.5632497
  },
  {
    "dockingId": 638,
    "name": "Lawn",
    "city": "Duiwelskloof",
    "bikes": 159,
    "capacity": 166,
    "active": false,
    "lat": -23.4114953,
    "lng": 30.1560436
  },
  {
    "dockingId": 639,
    "name": "Stephen",
    "city": "Itajaí",
    "bikes": 3,
    "capacity": 68,
    "active": true,
    "lat": -26.9107052,
    "lng": -48.6709133
  },
  {
    "dockingId": 640,
    "name": "School",
    "city": "Tembau",
    "bikes": 173,
    "capacity": 195,
    "active": false,
    "lat": -6.264999,
    "lng": 106.8513919
  },
  {
    "dockingId": 641,
    "name": "Hauk",
    "city": "Palmeiros",
    "bikes": 69,
    "capacity": 194,
    "active": false,
    "lat": 39.6416569,
    "lng": -8.8344817
  },
  {
    "dockingId": 642,
    "name": "Cambridge",
    "city": "Yuecheng",
    "bikes": 125,
    "capacity": 175,
    "active": false,
    "lat": 29.988244,
    "lng": 120.582633
  },
  {
    "dockingId": 643,
    "name": "Lillian",
    "city": "Gostynin",
    "bikes": 75,
    "capacity": 144,
    "active": false,
    "lat": 52.4293273,
    "lng": 19.4619176
  },
  {
    "dockingId": 644,
    "name": "Mandrake",
    "city": "Zhizhong",
    "bikes": 111,
    "capacity": 117,
    "active": false,
    "lat": 40.087301,
    "lng": 116.31098
  },
  {
    "dockingId": 645,
    "name": "Rigney",
    "city": "Saint Louis",
    "bikes": 123,
    "capacity": 137,
    "active": false,
    "lat": 38.6206914,
    "lng": -90.4408037
  },
  {
    "dockingId": 646,
    "name": "Dahle",
    "city": "Gominhães",
    "bikes": 41,
    "capacity": 131,
    "active": true,
    "lat": 41.4821084,
    "lng": -8.2776432
  },
  {
    "dockingId": 647,
    "name": "Clyde Gallagher",
    "city": "Rosmaninhal",
    "bikes": 35,
    "capacity": 36,
    "active": false,
    "lat": 39.7298157,
    "lng": -7.0865116
  },
  {
    "dockingId": 648,
    "name": "Porter",
    "city": "Horizonte",
    "bikes": 115,
    "capacity": 118,
    "active": false,
    "lat": -4.1132769,
    "lng": -38.4639632
  },
  {
    "dockingId": 649,
    "name": "Redwing",
    "city": "San Francisco",
    "bikes": 130,
    "capacity": 181,
    "active": false,
    "lat": 4.974252,
    "lng": -74.291386
  },
  {
    "dockingId": 650,
    "name": "Eagle Crest",
    "city": "Sarāb",
    "bikes": 64,
    "capacity": 102,
    "active": true,
    "lat": 37.9429347,
    "lng": 47.538392
  },
  {
    "dockingId": 651,
    "name": "Dryden",
    "city": "Rowotengah",
    "bikes": 195,
    "capacity": 197,
    "active": true,
    "lat": -8.1450324,
    "lng": 113.400216
  },
  {
    "dockingId": 652,
    "name": "Hallows",
    "city": "Kang-neung",
    "bikes": 181,
    "capacity": 191,
    "active": false,
    "lat": 37.751853,
    "lng": 128.8760574
  },
  {
    "dockingId": 653,
    "name": "Dennis",
    "city": "Novalja",
    "bikes": 147,
    "capacity": 197,
    "active": false,
    "lat": 44.584109,
    "lng": 14.8573931
  },
  {
    "dockingId": 654,
    "name": "Upham",
    "city": "Aţ Ţafīlah",
    "bikes": 140,
    "capacity": 160,
    "active": false,
    "lat": 30.8337059,
    "lng": 35.6160558
  },
  {
    "dockingId": 655,
    "name": "American Ash",
    "city": "Yanahuaya",
    "bikes": 37,
    "capacity": 103,
    "active": true,
    "lat": -14.2576342,
    "lng": -69.1692951
  },
  {
    "dockingId": 656,
    "name": "Grayhawk",
    "city": "Jianrao",
    "bikes": 177,
    "capacity": 198,
    "active": false,
    "lat": 23.081903,
    "lng": 113.274566
  },
  {
    "dockingId": 657,
    "name": "Independence",
    "city": "Yantian",
    "bikes": 51,
    "capacity": 83,
    "active": true,
    "lat": 22.556499,
    "lng": 114.236875
  },
  {
    "dockingId": 659,
    "name": "Merchant",
    "city": "Częstochowa",
    "bikes": 24,
    "capacity": 64,
    "active": false,
    "lat": 50.8667699,
    "lng": 18.828601
  },
  {
    "dockingId": 660,
    "name": "Fallview",
    "city": "Volzhskiy",
    "bikes": 13,
    "capacity": 65,
    "active": true,
    "lat": 48.7736083,
    "lng": 44.8250459
  },
  {
    "dockingId": 661,
    "name": "Red Cloud",
    "city": "Takaka",
    "bikes": 120,
    "capacity": 134,
    "active": false,
    "lat": -40.864985,
    "lng": 172.89648
  },
  {
    "dockingId": 662,
    "name": "Heath",
    "city": "Babakansari",
    "bikes": 141,
    "capacity": 182,
    "active": false,
    "lat": -6.837527,
    "lng": 107.2104935
  },
  {
    "dockingId": 663,
    "name": "Jenna",
    "city": "Vale de Mendiz",
    "bikes": 146,
    "capacity": 176,
    "active": true,
    "lat": 41.2218624,
    "lng": -7.5345759
  },
  {
    "dockingId": 664,
    "name": "Straubel",
    "city": "Youdian",
    "bikes": 160,
    "capacity": 169,
    "active": true,
    "lat": 23.1456682,
    "lng": 113.253787
  },
  {
    "dockingId": 665,
    "name": "Summer Ridge",
    "city": "Capiíbary",
    "bikes": 56,
    "capacity": 138,
    "active": true,
    "lat": -24.7406868,
    "lng": -56.0222113
  },
  {
    "dockingId": 666,
    "name": "Morningstar",
    "city": "Mairinque",
    "bikes": 81,
    "capacity": 116,
    "active": true,
    "lat": -23.5297232,
    "lng": -47.1947232
  },
  {
    "dockingId": 667,
    "name": "Spohn",
    "city": "Yulin",
    "bikes": 83,
    "capacity": 150,
    "active": false,
    "lat": 22.654032,
    "lng": 110.18122
  },
  {
    "dockingId": 668,
    "name": "Eliot",
    "city": "Iturama",
    "bikes": 171,
    "capacity": 191,
    "active": false,
    "lat": -19.7270406,
    "lng": -50.265662
  },
  {
    "dockingId": 675,
    "name": "Amoth",
    "city": "Punta de Piedra",
    "bikes": 153,
    "capacity": 162,
    "active": false,
    "lat": 10.9015165,
    "lng": -64.0857232
  },
  {
    "dockingId": 676,
    "name": "Talmadge",
    "city": "Hanbin",
    "bikes": 109,
    "capacity": 185,
    "active": true,
    "lat": 32.695172,
    "lng": 109.026836
  },
  {
    "dockingId": 677,
    "name": "Toban",
    "city": "Pakemitan Dua",
    "bikes": 77,
    "capacity": 117,
    "active": true,
    "lat": -7.1550724,
    "lng": 108.1498006
  },
  {
    "dockingId": 678,
    "name": "Trailsway",
    "city": "Hebu",
    "bikes": 181,
    "capacity": 182,
    "active": false,
    "lat": 27.098536,
    "lng": 114.972769
  },
  {
    "dockingId": 679,
    "name": "8th",
    "city": "Janaka",
    "bikes": 90,
    "capacity": 188,
    "active": false,
    "lat": -6.3323352,
    "lng": 105.8671954
  },
  {
    "dockingId": 680,
    "name": "Burning Wood",
    "city": "Brańsk",
    "bikes": 165,
    "capacity": 193,
    "active": false,
    "lat": 52.7433639,
    "lng": 22.8413044
  },
  {
    "dockingId": 681,
    "name": "Main",
    "city": "Sabirabad",
    "bikes": 157,
    "capacity": 170,
    "active": true,
    "lat": 39.9870663,
    "lng": 48.4692545
  },
  {
    "dockingId": 682,
    "name": "Fairview",
    "city": "Debark’",
    "bikes": 33,
    "capacity": 73,
    "active": true,
    "lat": 13.1509414,
    "lng": 37.8989689
  },
  {
    "dockingId": 684,
    "name": "Graedel",
    "city": "Nahrīn",
    "bikes": 83,
    "capacity": 159,
    "active": true,
    "lat": 36.0534598,
    "lng": 69.1089444
  },
  {
    "dockingId": 685,
    "name": "Forster",
    "city": "Itápolis",
    "bikes": 152,
    "capacity": 193,
    "active": true,
    "lat": -21.5950536,
    "lng": -48.8163705
  },
  {
    "dockingId": 686,
    "name": "Warrior",
    "city": "Lugang",
    "bikes": 140,
    "capacity": 200,
    "active": true,
    "lat": 31.2371338,
    "lng": 121.498955
  },
  {
    "dockingId": 687,
    "name": "Macpherson",
    "city": "Karang Daye",
    "bikes": 181,
    "capacity": 193,
    "active": true,
    "lat": -1.0320468,
    "lng": 130.5052176
  },
  {
    "dockingId": 688,
    "name": "Buell",
    "city": "Zavolzh’ye",
    "bikes": 164,
    "capacity": 195,
    "active": false,
    "lat": 56.6203091,
    "lng": 43.4086631
  },
  {
    "dockingId": 689,
    "name": "Westridge",
    "city": "Liuhe",
    "bikes": 156,
    "capacity": 194,
    "active": true,
    "lat": 42.284605,
    "lng": 125.744735
  },
  {
    "dockingId": 690,
    "name": "Schiller",
    "city": "Agenebode",
    "bikes": 114,
    "capacity": 188,
    "active": false,
    "lat": 7.1065989,
    "lng": 6.6878719
  },
  {
    "dockingId": 691,
    "name": "Katie",
    "city": "Baiyashi",
    "bikes": 200,
    "capacity": 200,
    "active": true,
    "lat": 26.3940283,
    "lng": 111.2940501
  },
  {
    "dockingId": 692,
    "name": "Springview",
    "city": "Ankazoabo",
    "bikes": 159,
    "capacity": 181,
    "active": true,
    "lat": -21.503481,
    "lng": 45.20956
  },
  {
    "dockingId": 693,
    "name": "Karstens",
    "city": "Bolnisi",
    "bikes": 135,
    "capacity": 178,
    "active": false,
    "lat": 41.4493594,
    "lng": 44.5488663
  },
  {
    "dockingId": 694,
    "name": "Butterfield",
    "city": "Lago",
    "bikes": 146,
    "capacity": 146,
    "active": true,
    "lat": 9.75,
    "lng": -11.65
  },
  {
    "dockingId": 695,
    "name": "Sheridan",
    "city": "Misawa",
    "bikes": 53,
    "capacity": 67,
    "active": false,
    "lat": 37.8806901,
    "lng": 140.1356792
  },
  {
    "dockingId": 696,
    "name": "Dixon",
    "city": "Pakuwon",
    "bikes": 85,
    "capacity": 164,
    "active": false,
    "lat": -7.2157251,
    "lng": 107.901989
  },
  {
    "dockingId": 697,
    "name": "Susan",
    "city": "Zizhao",
    "bikes": 171,
    "capacity": 178,
    "active": false,
    "lat": 35.416734,
    "lng": 119.526925
  },
  {
    "dockingId": 698,
    "name": "Thierer",
    "city": "Xuebu",
    "bikes": 136,
    "capacity": 187,
    "active": true,
    "lat": 31.717564,
    "lng": 119.382381
  },
  {
    "dockingId": 699,
    "name": "Hagan",
    "city": "Jinhe",
    "bikes": 136,
    "capacity": 160,
    "active": true,
    "lat": 26.695419,
    "lng": 101.841707
  },
  {
    "dockingId": 700,
    "name": "Canary",
    "city": "Hongqi",
    "bikes": 3,
    "capacity": 50,
    "active": false,
    "lat": 35.30385,
    "lng": 113.875245
  },
  {
    "dockingId": 701,
    "name": "Dorton",
    "city": "Philadelphia",
    "bikes": 27,
    "capacity": 99,
    "active": false,
    "lat": 40.0380778,
    "lng": -75.1136721
  },
  {
    "dockingId": 702,
    "name": "Heath",
    "city": "Rejowinangun",
    "bikes": 99,
    "capacity": 162,
    "active": true,
    "lat": -7.8111719,
    "lng": 110.3979074
  },
  {
    "dockingId": 703,
    "name": "Redwing",
    "city": "Mszana Dolna",
    "bikes": 170,
    "capacity": 179,
    "active": false,
    "lat": 49.67403,
    "lng": 20.07982
  },
  {
    "dockingId": 704,
    "name": "Forest Dale",
    "city": "Huangbayi",
    "bikes": 119,
    "capacity": 159,
    "active": false,
    "lat": 32.75348,
    "lng": 106.135955
  },
  {
    "dockingId": 705,
    "name": "Vahlen",
    "city": "Sines",
    "bikes": 169,
    "capacity": 196,
    "active": false,
    "lat": 37.9571555,
    "lng": -8.8608907
  },
  {
    "dockingId": 706,
    "name": "Nevada",
    "city": "Dubrovka",
    "bikes": 147,
    "capacity": 178,
    "active": true,
    "lat": 53.6911177,
    "lng": 33.5027704
  },
  {
    "dockingId": 707,
    "name": "Pennsylvania",
    "city": "Jatinagara",
    "bikes": 128,
    "capacity": 171,
    "active": true,
    "lat": -6.2307016,
    "lng": 106.8827427
  },
  {
    "dockingId": 708,
    "name": "Granby",
    "city": "Rochester",
    "bikes": 16,
    "capacity": 139,
    "active": false,
    "lat": 43.15,
    "lng": -77.63
  },
  {
    "dockingId": 709,
    "name": "Garrison",
    "city": "Černý Most",
    "bikes": 113,
    "capacity": 133,
    "active": true,
    "lat": 50.1064489,
    "lng": 14.5744479
  },
  {
    "dockingId": 711,
    "name": "Scoville",
    "city": "Bronnitsy",
    "bikes": 45,
    "capacity": 170,
    "active": false,
    "lat": 55.4055305,
    "lng": 38.2447393
  },
  {
    "dockingId": 712,
    "name": "Weeping Birch",
    "city": "Ode",
    "bikes": 98,
    "capacity": 173,
    "active": true,
    "lat": 7.65,
    "lng": 5.55
  },
  {
    "dockingId": 713,
    "name": "Troy",
    "city": "Kiraman",
    "bikes": 149,
    "capacity": 192,
    "active": false,
    "lat": -8.3743231,
    "lng": 124.7630307
  },
  {
    "dockingId": 714,
    "name": "Sunfield",
    "city": "Hīsh",
    "bikes": 169,
    "capacity": 171,
    "active": true,
    "lat": 35.5488997,
    "lng": 36.6444758
  },
  {
    "dockingId": 715,
    "name": "Macpherson",
    "city": "Vaitogi",
    "bikes": 37,
    "capacity": 182,
    "active": true,
    "lat": -14.3519929,
    "lng": -170.7408429
  },
  {
    "dockingId": 716,
    "name": "Mosinee",
    "city": "Angkup",
    "bikes": 43,
    "capacity": 190,
    "active": false,
    "lat": 4.6259611,
    "lng": 96.6740303
  },
  {
    "dockingId": 717,
    "name": "Barnett",
    "city": "Longcang",
    "bikes": 195,
    "capacity": 200,
    "active": false,
    "lat": 29.339476,
    "lng": 105.287612
  },
  {
    "dockingId": 718,
    "name": "Heffernan",
    "city": "Lukou",
    "bikes": 66,
    "capacity": 102,
    "active": true,
    "lat": 31.7338222,
    "lng": 118.8719394
  },
  {
    "dockingId": 719,
    "name": "Leroy",
    "city": "Vagney",
    "bikes": 173,
    "capacity": 196,
    "active": true,
    "lat": 48.0080981,
    "lng": 6.7166698
  },
  {
    "dockingId": 720,
    "name": "Talmadge",
    "city": "Novyy Nekouz",
    "bikes": 34,
    "capacity": 100,
    "active": false,
    "lat": 57.9054081,
    "lng": 38.0598668
  },
  {
    "dockingId": 721,
    "name": "Riverside",
    "city": "Santa Magdalena",
    "bikes": 110,
    "capacity": 200,
    "active": true,
    "lat": 12.6521788,
    "lng": 124.1145436
  },
  {
    "dockingId": 722,
    "name": "Drewry",
    "city": "Peñaflor",
    "bikes": 177,
    "capacity": 184,
    "active": false,
    "lat": -33.6060255,
    "lng": -70.8781837
  },
  {
    "dockingId": 723,
    "name": "Prentice",
    "city": "Guagua",
    "bikes": 48,
    "capacity": 139,
    "active": true,
    "lat": 14.9795865,
    "lng": 120.6149195
  },
  {
    "dockingId": 724,
    "name": "Morrow",
    "city": "Bicaj",
    "bikes": 191,
    "capacity": 191,
    "active": false,
    "lat": 41.9943014,
    "lng": 20.4128027
  },
  {
    "dockingId": 725,
    "name": "Redwing",
    "city": "Chernivtsi",
    "bikes": 188,
    "capacity": 192,
    "active": true,
    "lat": 48.2920787,
    "lng": 25.9358367
  },
  {
    "dockingId": 726,
    "name": "Washington",
    "city": "Duobaoshan",
    "bikes": 8,
    "capacity": 139,
    "active": true,
    "lat": 24.8415601,
    "lng": 99.0818001
  },
  {
    "dockingId": 727,
    "name": "Manley",
    "city": "Tocumen",
    "bikes": 79,
    "capacity": 189,
    "active": false,
    "lat": 9.0667013,
    "lng": -79.3873743
  },
  {
    "dockingId": 728,
    "name": "Cardinal",
    "city": "Beigong",
    "bikes": 92,
    "capacity": 170,
    "active": true,
    "lat": 39.9041999,
    "lng": 116.4073963
  },
  {
    "dockingId": 729,
    "name": "Londonderry",
    "city": "Saint-Maurice",
    "bikes": 43,
    "capacity": 139,
    "active": true,
    "lat": 43.8006906,
    "lng": 5.8147664
  },
  {
    "dockingId": 730,
    "name": "Reinke",
    "city": "Glagahdowo",
    "bikes": 187,
    "capacity": 189,
    "active": false,
    "lat": -8.0199814,
    "lng": 112.7355813
  },
  {
    "dockingId": 731,
    "name": "Tomscot",
    "city": "Mnelalete",
    "bikes": 67,
    "capacity": 141,
    "active": true,
    "lat": -9.889875,
    "lng": 124.3032719
  },
  {
    "dockingId": 732,
    "name": "Truax",
    "city": "Savyon",
    "bikes": 87,
    "capacity": 187,
    "active": true,
    "lat": 32.045589,
    "lng": 34.876578
  },
  {
    "dockingId": 733,
    "name": "Iowa",
    "city": "Wołczyn",
    "bikes": 30,
    "capacity": 34,
    "active": false,
    "lat": 51.0184963,
    "lng": 18.0515704
  },
  {
    "dockingId": 734,
    "name": "Lighthouse Bay",
    "city": "Jubaoshan",
    "bikes": 75,
    "capacity": 166,
    "active": false,
    "lat": 28.14932,
    "lng": 105.497935
  },
  {
    "dockingId": 735,
    "name": "Continental",
    "city": "Lishu",
    "bikes": 3,
    "capacity": 193,
    "active": true,
    "lat": 43.30706,
    "lng": 124.33539
  },
  {
    "dockingId": 736,
    "name": "Union",
    "city": "Triteh",
    "bikes": 76,
    "capacity": 167,
    "active": false,
    "lat": -6.2461822,
    "lng": 106.8323419
  },
  {
    "dockingId": 737,
    "name": "Bobwhite",
    "city": "Janiuay",
    "bikes": 51,
    "capacity": 135,
    "active": false,
    "lat": 10.9455193,
    "lng": 122.5100535
  },
  {
    "dockingId": 738,
    "name": "Everett",
    "city": "Cusco",
    "bikes": 152,
    "capacity": 184,
    "active": false,
    "lat": -13.53195,
    "lng": -71.9674626
  },
  {
    "dockingId": 739,
    "name": "Badeau",
    "city": "Purral",
    "bikes": 56,
    "capacity": 59,
    "active": false,
    "lat": 9.9576111,
    "lng": -84.0284827
  },
  {
    "dockingId": 740,
    "name": "Nevada",
    "city": "Đức Phong",
    "bikes": 142,
    "capacity": 156,
    "active": false,
    "lat": 11.8132799,
    "lng": 107.2370874
  },
  {
    "dockingId": 741,
    "name": "Butterfield",
    "city": "Xinhe",
    "bikes": 102,
    "capacity": 132,
    "active": false,
    "lat": 37.520481,
    "lng": 115.251124
  },
  {
    "dockingId": 742,
    "name": "Lawn",
    "city": "Pontevedra",
    "bikes": 143,
    "capacity": 185,
    "active": true,
    "lat": 42.4423768,
    "lng": -8.6463086
  },
  {
    "dockingId": 743,
    "name": "Bartelt",
    "city": "Ganghwa-gun",
    "bikes": 3,
    "capacity": 164,
    "active": false,
    "lat": 37.7467263,
    "lng": 126.4878731
  },
  {
    "dockingId": 744,
    "name": "Mcguire",
    "city": "Tamboril",
    "bikes": 55,
    "capacity": 176,
    "active": false,
    "lat": 18.509402,
    "lng": -69.8631607
  },
  {
    "dockingId": 745,
    "name": "Stang",
    "city": "Tugu",
    "bikes": 165,
    "capacity": 200,
    "active": true,
    "lat": -6.3621916,
    "lng": 106.8502879
  },
  {
    "dockingId": 746,
    "name": "Farmco",
    "city": "Horodyshche",
    "bikes": 150,
    "capacity": 166,
    "active": false,
    "lat": 49.2917766,
    "lng": 31.4465327
  },
  {
    "dockingId": 747,
    "name": "Judy",
    "city": "Massy",
    "bikes": 29,
    "capacity": 164,
    "active": false,
    "lat": 48.732568,
    "lng": 2.2889821
  },
  {
    "dockingId": 748,
    "name": "Southridge",
    "city": "Shuicha",
    "bikes": 111,
    "capacity": 154,
    "active": true,
    "lat": 26.520513,
    "lng": 115.067761
  },
  {
    "dockingId": 749,
    "name": "Buhler",
    "city": "Sandaogou",
    "bikes": 86,
    "capacity": 135,
    "active": false,
    "lat": 41.468342,
    "lng": 115.437602
  },
  {
    "dockingId": 750,
    "name": "Nancy",
    "city": "Volodarsk",
    "bikes": 6,
    "capacity": 156,
    "active": true,
    "lat": 56.2533676,
    "lng": 43.1585921
  },
  {
    "dockingId": 751,
    "name": "Orin",
    "city": "Phatthalung",
    "bikes": 121,
    "capacity": 168,
    "active": false,
    "lat": 7.193611,
    "lng": 100.592145
  },
  {
    "dockingId": 752,
    "name": "Buhler",
    "city": "Amiens",
    "bikes": 112,
    "capacity": 167,
    "active": true,
    "lat": 49.8905368,
    "lng": 2.3081396
  },
  {
    "dockingId": 753,
    "name": "Del Sol",
    "city": "Settat",
    "bikes": 94,
    "capacity": 143,
    "active": true,
    "lat": 32.9924242,
    "lng": -7.6222665
  },
  {
    "dockingId": 755,
    "name": "East",
    "city": "Maracás",
    "bikes": 111,
    "capacity": 119,
    "active": false,
    "lat": -13.5307334,
    "lng": -40.5533995
  },
  {
    "dockingId": 756,
    "name": "Troy",
    "city": "Tayug",
    "bikes": 17,
    "capacity": 181,
    "active": false,
    "lat": 14.6035421,
    "lng": 121.0245782
  },
  {
    "dockingId": 757,
    "name": "Milwaukee",
    "city": "Santa Luzia",
    "bikes": 78,
    "capacity": 134,
    "active": true,
    "lat": 38.6606921,
    "lng": -27.2272259
  },
  {
    "dockingId": 758,
    "name": "Loftsgordon",
    "city": "Granada",
    "bikes": 195,
    "capacity": 196,
    "active": false,
    "lat": 4.524233,
    "lng": -74.356481
  },
  {
    "dockingId": 759,
    "name": "Union",
    "city": "Nova Prata",
    "bikes": 19,
    "capacity": 119,
    "active": false,
    "lat": -28.7840394,
    "lng": -51.6077771
  },
  {
    "dockingId": 760,
    "name": "Independence",
    "city": "Mingyuedian",
    "bikes": 184,
    "capacity": 195,
    "active": true,
    "lat": 38.452173,
    "lng": 114.897169
  },
  {
    "dockingId": 761,
    "name": "East",
    "city": "Ordzhonikidze",
    "bikes": 46,
    "capacity": 142,
    "active": false,
    "lat": 52.4397976,
    "lng": 61.7405126
  },
  {
    "dockingId": 762,
    "name": "Loeprich",
    "city": "Bralin",
    "bikes": 15,
    "capacity": 103,
    "active": true,
    "lat": 51.2820434,
    "lng": 17.9082196
  },
  {
    "dockingId": 763,
    "name": "Arkansas",
    "city": "Dawwār Tīnjah",
    "bikes": 24,
    "capacity": 107,
    "active": true,
    "lat": 37.163269,
    "lng": 9.757347
  },
  {
    "dockingId": 764,
    "name": "Homewood",
    "city": "Pandanwangi",
    "bikes": 162,
    "capacity": 176,
    "active": false,
    "lat": -7.9522887,
    "lng": 112.6586009
  },
  {
    "dockingId": 765,
    "name": "Lakewood Gardens",
    "city": "Campelos",
    "bikes": 153,
    "capacity": 157,
    "active": false,
    "lat": 39.1979413,
    "lng": -9.2356359
  },
  {
    "dockingId": 766,
    "name": "Roth",
    "city": "Eg",
    "bikes": 7,
    "capacity": 168,
    "active": true,
    "lat": 48.6945174,
    "lng": 110.1901958
  },
  {
    "dockingId": 767,
    "name": "Mifflin",
    "city": "Mende",
    "bikes": 56,
    "capacity": 90,
    "active": false,
    "lat": 44.5394324,
    "lng": 3.5333133
  },
  {
    "dockingId": 768,
    "name": "Talmadge",
    "city": "Padre Nabeto",
    "bikes": 173,
    "capacity": 189,
    "active": true,
    "lat": 38.5633826,
    "lng": -8.8830265
  },
  {
    "dockingId": 769,
    "name": "Saint Paul",
    "city": "Pereira",
    "bikes": 77,
    "capacity": 96,
    "active": false,
    "lat": 42.0753926,
    "lng": -8.3634981
  },
  {
    "dockingId": 770,
    "name": "Ilene",
    "city": "Sorang",
    "bikes": 107,
    "capacity": 110,
    "active": true,
    "lat": 48.019573,
    "lng": 66.923684
  },
  {
    "dockingId": 771,
    "name": "Sutteridge",
    "city": "El Retén",
    "bikes": 190,
    "capacity": 191,
    "active": false,
    "lat": 10.611793,
    "lng": -74.269383
  },
  {
    "dockingId": 772,
    "name": "Valley Edge",
    "city": "Čeladná",
    "bikes": 173,
    "capacity": 175,
    "active": true,
    "lat": 49.4922202,
    "lng": 18.3370739
  },
  {
    "dockingId": 773,
    "name": "Pepper Wood",
    "city": "Il’skiy",
    "bikes": 4,
    "capacity": 110,
    "active": true,
    "lat": 44.7199081,
    "lng": 37.8396622
  },
  {
    "dockingId": 774,
    "name": "Susan",
    "city": "Hāla",
    "bikes": 16,
    "capacity": 131,
    "active": true,
    "lat": 25.8056887,
    "lng": 68.4065979
  },
  {
    "dockingId": 775,
    "name": "Nelson",
    "city": "Calamba",
    "bikes": 34,
    "capacity": 114,
    "active": true,
    "lat": 14.1929998,
    "lng": 121.1317352
  },
  {
    "dockingId": 777,
    "name": "Kedzie",
    "city": "Pukkila",
    "bikes": 113,
    "capacity": 157,
    "active": false,
    "lat": 60.6458731,
    "lng": 25.5831031
  },
  {
    "dockingId": 778,
    "name": "Sherman",
    "city": "Talanga",
    "bikes": 146,
    "capacity": 158,
    "active": true,
    "lat": 14.4137091,
    "lng": -87.0873978
  },
  {
    "dockingId": 779,
    "name": "Orin",
    "city": "Kashiwazaki",
    "bikes": 71,
    "capacity": 193,
    "active": true,
    "lat": 37.7816743,
    "lng": 140.9664638
  },
  {
    "dockingId": 780,
    "name": "Magdeline",
    "city": "Mariestad",
    "bikes": 166,
    "capacity": 167,
    "active": true,
    "lat": 58.6429512,
    "lng": 13.6587955
  },
  {
    "dockingId": 781,
    "name": "Kennedy",
    "city": "Uruzgān",
    "bikes": 135,
    "capacity": 137,
    "active": true,
    "lat": 32.9271287,
    "lng": 66.1415263
  },
  {
    "dockingId": 782,
    "name": "Harbort",
    "city": "Nova Venécia",
    "bikes": 44,
    "capacity": 85,
    "active": true,
    "lat": -18.4943258,
    "lng": -40.4657826
  },
  {
    "dockingId": 783,
    "name": "Washington",
    "city": "Kibondo",
    "bikes": 197,
    "capacity": 199,
    "active": false,
    "lat": -3.5837638,
    "lng": 30.7177509
  },
  {
    "dockingId": 784,
    "name": "Birchwood",
    "city": "Freiburg im Breisgau",
    "bikes": 7,
    "capacity": 7,
    "active": false,
    "lat": 47.9963155,
    "lng": 7.8107621
  },
  {
    "dockingId": 785,
    "name": "Carberry",
    "city": "Shuangxi",
    "bikes": 125,
    "capacity": 128,
    "active": true,
    "lat": 32.8676912,
    "lng": -80.017511
  },
  {
    "dockingId": 786,
    "name": "Tennessee",
    "city": "Farah",
    "bikes": 2,
    "capacity": 103,
    "active": true,
    "lat": 32.4464635,
    "lng": 62.1454133
  },
  {
    "dockingId": 787,
    "name": "Marcy",
    "city": "Itapetinga",
    "bikes": 84,
    "capacity": 116,
    "active": false,
    "lat": -15.2475119,
    "lng": -40.2509918
  },
  {
    "dockingId": 788,
    "name": "Crownhardt",
    "city": "Khrystynivka",
    "bikes": 66,
    "capacity": 165,
    "active": true,
    "lat": 48.8117212,
    "lng": 29.9738949
  },
  {
    "dockingId": 789,
    "name": "Hooker",
    "city": "Jinjiang",
    "bikes": 35,
    "capacity": 35,
    "active": false,
    "lat": 24.781681,
    "lng": 118.552365
  },
  {
    "dockingId": 790,
    "name": "Merry",
    "city": "Katsina-Ala",
    "bikes": 117,
    "capacity": 171,
    "active": false,
    "lat": 7.1657856,
    "lng": 9.2841023
  },
  {
    "dockingId": 791,
    "name": "Shopko",
    "city": "Pécs",
    "bikes": 8,
    "capacity": 16,
    "active": false,
    "lat": 46.0382687,
    "lng": 18.2440979
  },
  {
    "dockingId": 792,
    "name": "Utah",
    "city": "Daxing",
    "bikes": 138,
    "capacity": 156,
    "active": true,
    "lat": 39.726929,
    "lng": 116.341395
  },
  {
    "dockingId": 793,
    "name": "Crowley",
    "city": "Padangguci",
    "bikes": 28,
    "capacity": 109,
    "active": true,
    "lat": -4.3805365,
    "lng": 103.2894368
  },
  {
    "dockingId": 794,
    "name": "Grayhawk",
    "city": "Jixiang",
    "bikes": 122,
    "capacity": 164,
    "active": false,
    "lat": 30.9882241,
    "lng": 121.1241334
  },
  {
    "dockingId": 795,
    "name": "Heath",
    "city": "Pizarrete",
    "bikes": 191,
    "capacity": 192,
    "active": true,
    "lat": 18.2726824,
    "lng": -70.2297697
  },
  {
    "dockingId": 796,
    "name": "Algoma",
    "city": "Nidri",
    "bikes": 58,
    "capacity": 73,
    "active": true,
    "lat": 38.7099952,
    "lng": 20.7141164
  },
  {
    "dockingId": 797,
    "name": "Hudson",
    "city": "Houba",
    "bikes": 177,
    "capacity": 184,
    "active": true,
    "lat": 27.420628,
    "lng": 107.159835
  },
  {
    "dockingId": 798,
    "name": "Blackbird",
    "city": "Šalovci",
    "bikes": 64,
    "capacity": 185,
    "active": false,
    "lat": 46.8235919,
    "lng": 16.2881649
  },
  {
    "dockingId": 799,
    "name": "La Follette",
    "city": "Arbuzynka",
    "bikes": 187,
    "capacity": 197,
    "active": true,
    "lat": 47.9114733,
    "lng": 31.3156748
  },
  {
    "dockingId": 800,
    "name": "Calypso",
    "city": "Kuala Tuha",
    "bikes": 72,
    "capacity": 194,
    "active": true,
    "lat": 4.0568941,
    "lng": 96.2468873
  },
  {
    "dockingId": 801,
    "name": "Hayes",
    "city": "Cercal",
    "bikes": 82,
    "capacity": 126,
    "active": true,
    "lat": 39.2256483,
    "lng": -9.0073673
  },
  {
    "dockingId": 802,
    "name": "Cordelia",
    "city": "Ćuprija",
    "bikes": 18,
    "capacity": 81,
    "active": true,
    "lat": 43.9252485,
    "lng": 21.3734958
  },
  {
    "dockingId": 814,
    "name": "Nova",
    "city": "Taverny",
    "bikes": 138,
    "capacity": 163,
    "active": false,
    "lat": 49.0344853,
    "lng": 2.2178783
  },
  {
    "dockingId": 815,
    "name": "Twin Pines",
    "city": "Tuopu Luke",
    "bikes": 32,
    "capacity": 83,
    "active": false,
    "lat": 41.0233069,
    "lng": 80.2697382
  },
  {
    "dockingId": 816,
    "name": "Bayside",
    "city": "Bolian",
    "bikes": 135,
    "capacity": 186,
    "active": false,
    "lat": 23.961903,
    "lng": 106.762807
  },
  {
    "dockingId": 817,
    "name": "Burning Wood",
    "city": "Smętowo Graniczne",
    "bikes": 153,
    "capacity": 178,
    "active": false,
    "lat": 53.7431909,
    "lng": 18.6894607
  },
  {
    "dockingId": 818,
    "name": "Stone Corner",
    "city": "Tottori",
    "bikes": 118,
    "capacity": 167,
    "active": false,
    "lat": 37.8925401,
    "lng": 140.5266555
  },
  {
    "dockingId": 819,
    "name": "Bellgrove",
    "city": "Kozhanka",
    "bikes": 25,
    "capacity": 184,
    "active": false,
    "lat": 49.9713653,
    "lng": 29.7636724
  },
  {
    "dockingId": 820,
    "name": "Mallard",
    "city": "Qi’an",
    "bikes": 172,
    "capacity": 180,
    "active": false,
    "lat": 34.341574,
    "lng": 108.93977
  },
  {
    "dockingId": 821,
    "name": "Packers",
    "city": "Jabłonowo Pomorskie",
    "bikes": 187,
    "capacity": 193,
    "active": true,
    "lat": 53.39009,
    "lng": 19.1548
  },
  {
    "dockingId": 822,
    "name": "Claremont",
    "city": "Karney Shomron",
    "bikes": 0,
    "capacity": 160,
    "active": false,
    "lat": 32.171553,
    "lng": 35.097462
  },
  {
    "dockingId": 823,
    "name": "Di Loreto",
    "city": "Santa Cruz Cabrália",
    "bikes": 70,
    "capacity": 169,
    "active": true,
    "lat": -16.2768187,
    "lng": -39.0300323
  },
  {
    "dockingId": 824,
    "name": "Arkansas",
    "city": "Wajak",
    "bikes": 168,
    "capacity": 196,
    "active": true,
    "lat": -8.1277952,
    "lng": 112.7509656
  },
  {
    "dockingId": 825,
    "name": "Mallard",
    "city": "Zhangbei",
    "bikes": 89,
    "capacity": 166,
    "active": false,
    "lat": 41.149869,
    "lng": 114.722326
  },
  {
    "dockingId": 826,
    "name": "Anthes",
    "city": "Liantan",
    "bikes": 165,
    "capacity": 169,
    "active": true,
    "lat": 30.761853,
    "lng": 117.007039
  },
  {
    "dockingId": 827,
    "name": "Carey",
    "city": "Ouanaminthe",
    "bikes": 71,
    "capacity": 133,
    "active": true,
    "lat": 19.5473723,
    "lng": -71.7296249
  },
  {
    "dockingId": 828,
    "name": "Sutherland",
    "city": "Chodová Planá",
    "bikes": 40,
    "capacity": 136,
    "active": true,
    "lat": 49.8932232,
    "lng": 12.7301543
  },
  {
    "dockingId": 829,
    "name": "John Wall",
    "city": "San Nicolás",
    "bikes": 179,
    "capacity": 181,
    "active": true,
    "lat": 14.9415552,
    "lng": -88.3263603
  },
  {
    "dockingId": 830,
    "name": "Oak Valley",
    "city": "Daleszyce",
    "bikes": 191,
    "capacity": 200,
    "active": false,
    "lat": 50.8022561,
    "lng": 20.80789
  },
  {
    "dockingId": 831,
    "name": "Pennsylvania",
    "city": "Kuloy",
    "bikes": 115,
    "capacity": 189,
    "active": false,
    "lat": 61.030613,
    "lng": 42.4853941
  },
  {
    "dockingId": 832,
    "name": "Lotheville",
    "city": "Pilcomay",
    "bikes": 144,
    "capacity": 157,
    "active": false,
    "lat": -12.0442537,
    "lng": -75.2535192
  },
  {
    "dockingId": 833,
    "name": "Center",
    "city": "Vecpiebalga",
    "bikes": 156,
    "capacity": 177,
    "active": true,
    "lat": 57.061272,
    "lng": 25.817596
  },
  {
    "dockingId": 834,
    "name": "Warner",
    "city": "Priozërsk",
    "bikes": 85,
    "capacity": 92,
    "active": true,
    "lat": 61.0390194,
    "lng": 30.1341099
  },
  {
    "dockingId": 835,
    "name": "Menomonie",
    "city": "Beni Khiar",
    "bikes": 101,
    "capacity": 143,
    "active": false,
    "lat": 36.4596214,
    "lng": 10.7830826
  },
  {
    "dockingId": 836,
    "name": "Colorado",
    "city": "Kepuh",
    "bikes": 81,
    "capacity": 180,
    "active": true,
    "lat": -7.6873253,
    "lng": 112.116195
  },
  {
    "dockingId": 837,
    "name": "Meadow Vale",
    "city": "Kanda",
    "bikes": 124,
    "capacity": 126,
    "active": false,
    "lat": 37.1518793,
    "lng": 138.3591194
  },
  {
    "dockingId": 838,
    "name": "Sloan",
    "city": "Hongsi",
    "bikes": 26,
    "capacity": 77,
    "active": false,
    "lat": 38.604702,
    "lng": 100.825981
  },
  {
    "dockingId": 839,
    "name": "Esker",
    "city": "Talata Mafara",
    "bikes": 168,
    "capacity": 198,
    "active": false,
    "lat": 12.3258467,
    "lng": 6.0255738
  },
  {
    "dockingId": 840,
    "name": "Meadow Vale",
    "city": "Jiuxian",
    "bikes": 21,
    "capacity": 177,
    "active": false,
    "lat": 25.130594,
    "lng": 109.768451
  },
  {
    "dockingId": 842,
    "name": "Corry",
    "city": "Nor Yerznka",
    "bikes": 109,
    "capacity": 166,
    "active": true,
    "lat": 40.3034691,
    "lng": 44.3930377
  },
  {
    "dockingId": 843,
    "name": "Brickson Park",
    "city": "Geumpang",
    "bikes": 18,
    "capacity": 115,
    "active": false,
    "lat": 4.8238623,
    "lng": 96.195132
  },
  {
    "dockingId": 844,
    "name": "Heffernan",
    "city": "Hodoš",
    "bikes": 29,
    "capacity": 164,
    "active": false,
    "lat": 46.8289256,
    "lng": 16.3268491
  },
  {
    "dockingId": 845,
    "name": "Dexter",
    "city": "Pingba",
    "bikes": 60,
    "capacity": 101,
    "active": false,
    "lat": 26.405715,
    "lng": 106.256412
  },
  {
    "dockingId": 846,
    "name": "Mifflin",
    "city": "Dalinhe",
    "bikes": 153,
    "capacity": 178,
    "active": true,
    "lat": 39.562646,
    "lng": 113.369956
  },
  {
    "dockingId": 847,
    "name": "Sycamore",
    "city": "Freiria",
    "bikes": 78,
    "capacity": 141,
    "active": false,
    "lat": 39.3442902,
    "lng": -8.9534587
  },
  {
    "dockingId": 848,
    "name": "Iowa",
    "city": "Şabbūrah",
    "bikes": 174,
    "capacity": 186,
    "active": false,
    "lat": 35.1541677,
    "lng": 37.2089056
  },
  {
    "dockingId": 849,
    "name": "Anhalt",
    "city": "Kogota",
    "bikes": 177,
    "capacity": 198,
    "active": false,
    "lat": 38.540644,
    "lng": 141.064362
  },
  {
    "dockingId": 850,
    "name": "Birchwood",
    "city": "Mahuta",
    "bikes": 110,
    "capacity": 199,
    "active": true,
    "lat": -10.8731945,
    "lng": 39.4217212
  },
  {
    "dockingId": 851,
    "name": "Loeprich",
    "city": "Staré Město",
    "bikes": 42,
    "capacity": 61,
    "active": false,
    "lat": 50.1617318,
    "lng": 16.9473457
  },
  {
    "dockingId": 852,
    "name": "Crowley",
    "city": "Guanyang",
    "bikes": 133,
    "capacity": 199,
    "active": false,
    "lat": 25.489383,
    "lng": 111.160851
  },
  {
    "dockingId": 853,
    "name": "Little Fleur",
    "city": "Nossa Senhora de Machede",
    "bikes": 2,
    "capacity": 171,
    "active": true,
    "lat": 38.5783058,
    "lng": -7.7756872
  },
  {
    "dockingId": 854,
    "name": "Ramsey",
    "city": "Yangcun",
    "bikes": 195,
    "capacity": 198,
    "active": true,
    "lat": 22.170437,
    "lng": 111.791539
  },
  {
    "dockingId": 855,
    "name": "Everett",
    "city": "Qianchuan",
    "bikes": 125,
    "capacity": 166,
    "active": true,
    "lat": 30.2516885,
    "lng": 120.170382
  },
  {
    "dockingId": 856,
    "name": "Rieder",
    "city": "Sanxixiang",
    "bikes": 153,
    "capacity": 180,
    "active": true,
    "lat": 26.097158,
    "lng": 115.308246
  },
  {
    "dockingId": 858,
    "name": "Laurel",
    "city": "Pitogo",
    "bikes": 133,
    "capacity": 195,
    "active": true,
    "lat": 7.444229,
    "lng": 123.33769
  },
  {
    "dockingId": 859,
    "name": "Elgar",
    "city": "Chat Trakan",
    "bikes": 52,
    "capacity": 109,
    "active": true,
    "lat": 17.310993,
    "lng": 100.6872457
  },
  {
    "dockingId": 860,
    "name": "Acker",
    "city": "Chishmy",
    "bikes": 109,
    "capacity": 126,
    "active": true,
    "lat": 54.5776433,
    "lng": 52.4513187
  },
  {
    "dockingId": 861,
    "name": "Iowa",
    "city": "Hengduo",
    "bikes": 75,
    "capacity": 88,
    "active": false,
    "lat": 30.572815,
    "lng": 104.066801
  },
  {
    "dockingId": 862,
    "name": "Northridge",
    "city": "Shibīn al Qanāţir",
    "bikes": 96,
    "capacity": 193,
    "active": true,
    "lat": 30.3114077,
    "lng": 31.3228799
  },
  {
    "dockingId": 863,
    "name": "Holy Cross",
    "city": "Mandala",
    "bikes": 140,
    "capacity": 178,
    "active": true,
    "lat": -7.347756,
    "lng": 108.8818859
  },
  {
    "dockingId": 864,
    "name": "Carey",
    "city": "Đức Phong",
    "bikes": 149,
    "capacity": 160,
    "active": false,
    "lat": 11.8132799,
    "lng": 107.2370874
  },
  {
    "dockingId": 865,
    "name": "Vernon",
    "city": "Wadungasri",
    "bikes": 36,
    "capacity": 50,
    "active": true,
    "lat": -7.3474138,
    "lng": 112.7677319
  },
  {
    "dockingId": 866,
    "name": "Bonner",
    "city": "Oklahoma City",
    "bikes": 187,
    "capacity": 195,
    "active": true,
    "lat": 35.3364517,
    "lng": -97.6222665
  },
  {
    "dockingId": 867,
    "name": "Dwight",
    "city": "Santiago do Cacém",
    "bikes": 138,
    "capacity": 162,
    "active": false,
    "lat": 38.0162314,
    "lng": -8.6956768
  },
  {
    "dockingId": 868,
    "name": "Buena Vista",
    "city": "Kotakaya Dua",
    "bikes": 117,
    "capacity": 177,
    "active": true,
    "lat": -8.2446702,
    "lng": 123.1428348
  },
  {
    "dockingId": 869,
    "name": "Grim",
    "city": "Brody",
    "bikes": 103,
    "capacity": 145,
    "active": true,
    "lat": 50.0788069,
    "lng": 25.1478942
  },
  {
    "dockingId": 870,
    "name": "Londonderry",
    "city": "Maksatikha",
    "bikes": 17,
    "capacity": 26,
    "active": true,
    "lat": 57.6044065,
    "lng": 35.9190561
  },
  {
    "dockingId": 871,
    "name": "Weeping Birch",
    "city": "Bugang",
    "bikes": 200,
    "capacity": 200,
    "active": false,
    "lat": 10.7164071,
    "lng": 123.37862
  },
  {
    "dockingId": 872,
    "name": "Longview",
    "city": "Tres Isletas",
    "bikes": 178,
    "capacity": 193,
    "active": true,
    "lat": -26.3374785,
    "lng": -60.4304186
  },
  {
    "dockingId": 873,
    "name": "Melody",
    "city": "Kambing",
    "bikes": 164,
    "capacity": 196,
    "active": false,
    "lat": 14.5177485,
    "lng": 120.5973573
  },
  {
    "dockingId": 874,
    "name": "Homewood",
    "city": "Pomichna",
    "bikes": 104,
    "capacity": 144,
    "active": false,
    "lat": 48.2465578,
    "lng": 31.4060472
  },
  {
    "dockingId": 876,
    "name": "Reindahl",
    "city": "Werang",
    "bikes": 187,
    "capacity": 190,
    "active": false,
    "lat": -8.5639937,
    "lng": 122.6164409
  },
  {
    "dockingId": 877,
    "name": "Burning Wood",
    "city": "Chenglin",
    "bikes": 149,
    "capacity": 194,
    "active": true,
    "lat": 39.1340249,
    "lng": 117.2946041
  },
  {
    "dockingId": 878,
    "name": "Mallory",
    "city": "Plaju",
    "bikes": 32,
    "capacity": 118,
    "active": false,
    "lat": -2.9997434,
    "lng": 104.8162784
  },
  {
    "dockingId": 879,
    "name": "Golf Course",
    "city": "El Corpus",
    "bikes": 140,
    "capacity": 159,
    "active": false,
    "lat": 13.2881184,
    "lng": -87.0336925
  },
  {
    "dockingId": 880,
    "name": "Jenna",
    "city": "Cartagena",
    "bikes": 59,
    "capacity": 140,
    "active": true,
    "lat": -33.5482466,
    "lng": -71.6045745
  },
  {
    "dockingId": 881,
    "name": "Atwood",
    "city": "Campinas",
    "bikes": 175,
    "capacity": 183,
    "active": true,
    "lat": -22.9098833,
    "lng": -47.0625812
  },
  {
    "dockingId": 882,
    "name": "Carey",
    "city": "Daruoyan",
    "bikes": 45,
    "capacity": 197,
    "active": true,
    "lat": 28.297306,
    "lng": 120.632491
  },
  {
    "dockingId": 883,
    "name": "Cordelia",
    "city": "Gayny",
    "bikes": 128,
    "capacity": 139,
    "active": false,
    "lat": 60.3278292,
    "lng": 54.3033879
  },
  {
    "dockingId": 884,
    "name": "Golf",
    "city": "Danzi",
    "bikes": 124,
    "capacity": 133,
    "active": false,
    "lat": 44.573753,
    "lng": 129.627161
  },
  {
    "dockingId": 886,
    "name": "Express",
    "city": "Balboa",
    "bikes": 129,
    "capacity": 168,
    "active": true,
    "lat": 4.9497479,
    "lng": -75.958017
  },
  {
    "dockingId": 887,
    "name": "Westridge",
    "city": "Bebedahan",
    "bikes": 44,
    "capacity": 173,
    "active": false,
    "lat": -7.2527403,
    "lng": 107.8774664
  },
  {
    "dockingId": 888,
    "name": "Shelley",
    "city": "Jiangpan",
    "bikes": 96,
    "capacity": 185,
    "active": true,
    "lat": 22.781631,
    "lng": 108.273158
  },
  {
    "dockingId": 889,
    "name": "Starling",
    "city": "Igurubi",
    "bikes": 149,
    "capacity": 169,
    "active": true,
    "lat": -4,
    "lng": 33.7
  },
  {
    "dockingId": 890,
    "name": "Manitowish",
    "city": "Saint-Pierre",
    "bikes": 17,
    "capacity": 131,
    "active": false,
    "lat": 46.779204,
    "lng": -56.173126
  },
  {
    "dockingId": 891,
    "name": "Vermont",
    "city": "Midlands",
    "bikes": 109,
    "capacity": 183,
    "active": false,
    "lat": -20.3399053,
    "lng": 57.5688474
  },
  {
    "dockingId": 892,
    "name": "Schiller",
    "city": "Clonskeagh",
    "bikes": 63,
    "capacity": 199,
    "active": true,
    "lat": 53.3141205,
    "lng": -6.2387374
  },
  {
    "dockingId": 893,
    "name": "Cambridge",
    "city": "Jucás",
    "bikes": 126,
    "capacity": 186,
    "active": true,
    "lat": -6.4534018,
    "lng": -39.6105142
  },
  {
    "dockingId": 894,
    "name": "Pankratz",
    "city": "Taganskiy",
    "bikes": 159,
    "capacity": 160,
    "active": true,
    "lat": 55.7393377,
    "lng": 37.6642542
  },
  {
    "dockingId": 895,
    "name": "Golf Course",
    "city": "Modimolle",
    "bikes": 93,
    "capacity": 184,
    "active": true,
    "lat": -24.6079128,
    "lng": 28.6054979
  },
  {
    "dockingId": 896,
    "name": "Thompson",
    "city": "Gaoqiao",
    "bikes": 14,
    "capacity": 52,
    "active": false,
    "lat": 31.364902,
    "lng": 108.249509
  },
  {
    "dockingId": 897,
    "name": "Myrtle",
    "city": "Saint-Quentin-en-Yvelines",
    "bikes": 177,
    "capacity": 187,
    "active": true,
    "lat": 48.7835538,
    "lng": 2.0439219
  },
  {
    "dockingId": 898,
    "name": "Schiller",
    "city": "Łubowo",
    "bikes": 48,
    "capacity": 168,
    "active": true,
    "lat": 53.5862715,
    "lng": 16.3876584
  },
  {
    "dockingId": 899,
    "name": "Oneill",
    "city": "Göteborg",
    "bikes": 122,
    "capacity": 190,
    "active": false,
    "lat": 57.7325747,
    "lng": 12.0715528
  },
  {
    "dockingId": 911,
    "name": "Stang",
    "city": "Santa Monica",
    "bikes": 133,
    "capacity": 165,
    "active": false,
    "lat": 10.0342937,
    "lng": 126.0415372
  },
  {
    "dockingId": 912,
    "name": "Boyd",
    "city": "Shipu",
    "bikes": 33,
    "capacity": 34,
    "active": false,
    "lat": 29.202542,
    "lng": 121.931606
  },
  {
    "dockingId": 913,
    "name": "Transport",
    "city": "Mulyo",
    "bikes": 46,
    "capacity": 167,
    "active": true,
    "lat": -7.3348063,
    "lng": 110.5102808
  },
  {
    "dockingId": 914,
    "name": "Moulton",
    "city": "Shuangfeng",
    "bikes": 89,
    "capacity": 195,
    "active": true,
    "lat": 27.456658,
    "lng": 112.175245
  },
  {
    "dockingId": 915,
    "name": "Roth",
    "city": "Anka",
    "bikes": 13,
    "capacity": 195,
    "active": false,
    "lat": 11.9170674,
    "lng": 5.9832577
  },
  {
    "dockingId": 916,
    "name": "Spenser",
    "city": "Osiek",
    "bikes": 1,
    "capacity": 197,
    "active": true,
    "lat": 53.1595566,
    "lng": 19.3969614
  },
  {
    "dockingId": 917,
    "name": "Derek",
    "city": "Ambelókipoi",
    "bikes": 1,
    "capacity": 94,
    "active": true,
    "lat": 37.7582938,
    "lng": 20.8728543
  },
  {
    "dockingId": 918,
    "name": "Butternut",
    "city": "Rungis",
    "bikes": 2,
    "capacity": 101,
    "active": true,
    "lat": 48.7700185,
    "lng": 2.3508225
  },
  {
    "dockingId": 919,
    "name": "Jenifer",
    "city": "Lhabupu",
    "bikes": 196,
    "capacity": 198,
    "active": true,
    "lat": 29.859268,
    "lng": 89.387008
  },
  {
    "dockingId": 920,
    "name": "School",
    "city": "Niš",
    "bikes": 189,
    "capacity": 195,
    "active": true,
    "lat": 43.3209022,
    "lng": 21.8957589
  },
  {
    "dockingId": 921,
    "name": "Superior",
    "city": "Futian",
    "bikes": 64,
    "capacity": 144,
    "active": true,
    "lat": 22.521523,
    "lng": 114.055023
  },
  {
    "dockingId": 922,
    "name": "Victoria",
    "city": "Ciudad Darío",
    "bikes": 13,
    "capacity": 77,
    "active": true,
    "lat": 12.734087,
    "lng": -86.1217424
  },
  {
    "dockingId": 924,
    "name": "Pierstorff",
    "city": "Bressuire",
    "bikes": 182,
    "capacity": 195,
    "active": false,
    "lat": 46.8118134,
    "lng": -0.5451553
  },
  {
    "dockingId": 925,
    "name": "Graceland",
    "city": "Cikembang",
    "bikes": 56,
    "capacity": 86,
    "active": true,
    "lat": -6.8497345,
    "lng": 106.8738909
  },
  {
    "dockingId": 926,
    "name": "Mockingbird",
    "city": "Tarkwa",
    "bikes": 98,
    "capacity": 165,
    "active": true,
    "lat": 5.301832,
    "lng": -1.9930466
  },
  {
    "dockingId": 927,
    "name": "Londonderry",
    "city": "Wushan",
    "bikes": 172,
    "capacity": 174,
    "active": true,
    "lat": 31.074834,
    "lng": 109.879153
  },
  {
    "dockingId": 928,
    "name": "Kenwood",
    "city": "Huangshan",
    "bikes": 55,
    "capacity": 79,
    "active": true,
    "lat": 30.113962,
    "lng": 118.169798
  },
  {
    "dockingId": 929,
    "name": "Union",
    "city": "Puma",
    "bikes": 63,
    "capacity": 191,
    "active": false,
    "lat": -6.8316639,
    "lng": 39.2827032
  },
  {
    "dockingId": 930,
    "name": "Crest Line",
    "city": "Orlovo",
    "bikes": 122,
    "capacity": 135,
    "active": true,
    "lat": 51.789985,
    "lng": 39.559439
  },
  {
    "dockingId": 931,
    "name": "Tennessee",
    "city": "Luhe",
    "bikes": 35,
    "capacity": 109,
    "active": true,
    "lat": 23.301616,
    "lng": 115.660142
  },
  {
    "dockingId": 932,
    "name": "Clarendon",
    "city": "Hūn",
    "bikes": 115,
    "capacity": 149,
    "active": true,
    "lat": 28.6448398,
    "lng": 15.9699878
  },
  {
    "dockingId": 933,
    "name": "Sloan",
    "city": "Sangtian",
    "bikes": 33,
    "capacity": 192,
    "active": true,
    "lat": 27.122273,
    "lng": 116.571317
  },
  {
    "dockingId": 934,
    "name": "Utah",
    "city": "Jiapeng",
    "bikes": 41,
    "capacity": 64,
    "active": false,
    "lat": 21.48402,
    "lng": 109.10459
  },
  {
    "dockingId": 935,
    "name": "Almo",
    "city": "Besteiros",
    "bikes": 3,
    "capacity": 24,
    "active": true,
    "lat": 41.2263185,
    "lng": -8.344485
  },
  {
    "dockingId": 936,
    "name": "Barby",
    "city": "New Cebu",
    "bikes": 73,
    "capacity": 198,
    "active": false,
    "lat": 14.6100657,
    "lng": 121.0078432
  },
  {
    "dockingId": 937,
    "name": "Monterey",
    "city": "Riebiņi",
    "bikes": 164,
    "capacity": 199,
    "active": false,
    "lat": 56.343612,
    "lng": 26.8013629
  },
  {
    "dockingId": 938,
    "name": "Oriole",
    "city": "Meliau",
    "bikes": 140,
    "capacity": 186,
    "active": true,
    "lat": -0.2457577,
    "lng": 110.2832217
  },
  {
    "dockingId": 939,
    "name": "Washington",
    "city": "Cairo",
    "bikes": 164,
    "capacity": 196,
    "active": true,
    "lat": 30.0444196,
    "lng": 31.2357116
  },
  {
    "dockingId": 940,
    "name": "Pleasure",
    "city": "Jinshi",
    "bikes": 129,
    "capacity": 165,
    "active": false,
    "lat": 29.60548,
    "lng": 111.877499
  },
  {
    "dockingId": 941,
    "name": "Towne",
    "city": "Val-d'Or",
    "bikes": 123,
    "capacity": 150,
    "active": true,
    "lat": 48.1041936,
    "lng": -77.7963772
  },
  {
    "dockingId": 942,
    "name": "Bartelt",
    "city": "Mamboma",
    "bikes": 52,
    "capacity": 166,
    "active": false,
    "lat": 7.833333,
    "lng": -11.666667
  },
  {
    "dockingId": 943,
    "name": "Forest",
    "city": "Mangaldan",
    "bikes": 182,
    "capacity": 196,
    "active": true,
    "lat": 16.0662148,
    "lng": 120.404904
  },
  {
    "dockingId": 944,
    "name": "Anthes",
    "city": "Pijao",
    "bikes": 115,
    "capacity": 155,
    "active": true,
    "lat": 4.336584,
    "lng": -75.702412
  },
  {
    "dockingId": 945,
    "name": "Farmco",
    "city": "Lindavista",
    "bikes": 112,
    "capacity": 192,
    "active": false,
    "lat": 19.5037694,
    "lng": -99.1324282
  },
  {
    "dockingId": 946,
    "name": "Schiller",
    "city": "Xiaojiezi",
    "bikes": 35,
    "capacity": 131,
    "active": false,
    "lat": 34.390575,
    "lng": 117.526125
  },
  {
    "dockingId": 947,
    "name": "Sugar",
    "city": "Sofádes",
    "bikes": 174,
    "capacity": 183,
    "active": false,
    "lat": 39.335659,
    "lng": 22.097651
  },
  {
    "dockingId": 948,
    "name": "Vermont",
    "city": "Jiangcun",
    "bikes": 118,
    "capacity": 119,
    "active": true,
    "lat": 22.579117,
    "lng": 113.081508
  },
  {
    "dockingId": 949,
    "name": "Redwing",
    "city": "Toufang",
    "bikes": 176,
    "capacity": 181,
    "active": false,
    "lat": 27.252847,
    "lng": 116.632891
  },
  {
    "dockingId": 950,
    "name": "Karstens",
    "city": "Zhanghuban",
    "bikes": 57,
    "capacity": 87,
    "active": false,
    "lat": 26.393274,
    "lng": 118.502373
  },
  {
    "dockingId": 951,
    "name": "Burning Wood",
    "city": "Leiwang",
    "bikes": 129,
    "capacity": 171,
    "active": true,
    "lat": 22.066171,
    "lng": 107.781956
  },
  {
    "dockingId": 952,
    "name": "Bobwhite",
    "city": "Karadaglije",
    "bikes": 44,
    "capacity": 155,
    "active": true,
    "lat": 44.5706127,
    "lng": 18.0176034
  },
  {
    "dockingId": 953,
    "name": "6th",
    "city": "Vailoatai",
    "bikes": 24,
    "capacity": 187,
    "active": true,
    "lat": -14.3521224,
    "lng": -170.7810162
  },
  {
    "dockingId": 954,
    "name": "Surrey",
    "city": "Mahekou",
    "bikes": 200,
    "capacity": 200,
    "active": true,
    "lat": 29.541793,
    "lng": 110.364953
  },
  {
    "dockingId": 955,
    "name": "Stone Corner",
    "city": "Charlotte",
    "bikes": 96,
    "capacity": 130,
    "active": false,
    "lat": 35.21,
    "lng": -80.69
  },
  {
    "dockingId": 956,
    "name": "Mayer",
    "city": "Bachok",
    "bikes": 75,
    "capacity": 106,
    "active": true,
    "lat": 6.0375069,
    "lng": 102.3406606
  },
  {
    "dockingId": 957,
    "name": "Loftsgordon",
    "city": "Göteborg",
    "bikes": 123,
    "capacity": 159,
    "active": false,
    "lat": 57.6900919,
    "lng": 11.94588
  },
  {
    "dockingId": 959,
    "name": "Sauthoff",
    "city": "Berlín",
    "bikes": 8,
    "capacity": 140,
    "active": false,
    "lat": 13.4960361,
    "lng": -88.5299428
  },
  {
    "dockingId": 960,
    "name": "Dapin",
    "city": "Yang Chum Noi",
    "bikes": 182,
    "capacity": 190,
    "active": false,
    "lat": 15.241178,
    "lng": 104.4024704
  },
  {
    "dockingId": 961,
    "name": "School",
    "city": "Courbevoie",
    "bikes": 198,
    "capacity": 199,
    "active": false,
    "lat": 48.8981844,
    "lng": 2.2478659
  },
  {
    "dockingId": 962,
    "name": "Victoria",
    "city": "Dongsheng",
    "bikes": 192,
    "capacity": 193,
    "active": true,
    "lat": 39.822507,
    "lng": 109.963338
  },
  {
    "dockingId": 963,
    "name": "Schiller",
    "city": "Karangintan",
    "bikes": 191,
    "capacity": 199,
    "active": false,
    "lat": -3.4865398,
    "lng": 114.9754175
  },
  {
    "dockingId": 964,
    "name": "Sullivan",
    "city": "Mahong",
    "bikes": 88,
    "capacity": 121,
    "active": false,
    "lat": 34.2948431,
    "lng": 117.1897677
  },
  {
    "dockingId": 965,
    "name": "Northview",
    "city": "Bandhagen",
    "bikes": 64,
    "capacity": 66,
    "active": false,
    "lat": 59.2542117,
    "lng": 18.027354
  },
  {
    "dockingId": 966,
    "name": "Ridge Oak",
    "city": "Chrząstowice",
    "bikes": 106,
    "capacity": 135,
    "active": false,
    "lat": 50.6657079,
    "lng": 18.0732903
  },
  {
    "dockingId": 967,
    "name": "Boyd",
    "city": "Segbwema",
    "bikes": 123,
    "capacity": 194,
    "active": false,
    "lat": 7.9929954,
    "lng": -10.9524441
  },
  {
    "dockingId": 968,
    "name": "Harper",
    "city": "Koło",
    "bikes": 182,
    "capacity": 197,
    "active": false,
    "lat": 52.279986,
    "lng": 17.3522939
  },
  {
    "dockingId": 969,
    "name": "Boyd",
    "city": "Babakansari",
    "bikes": 196,
    "capacity": 198,
    "active": true,
    "lat": -6.837527,
    "lng": 107.2104935
  },
  {
    "dockingId": 970,
    "name": "Katie",
    "city": "Colatina",
    "bikes": 188,
    "capacity": 195,
    "active": false,
    "lat": -19.5365508,
    "lng": -40.6258001
  },
  {
    "dockingId": 971,
    "name": "Thackeray",
    "city": "Vila Chã",
    "bikes": 190,
    "capacity": 195,
    "active": false,
    "lat": 40.7339545,
    "lng": -7.8160659
  },
  {
    "dockingId": 972,
    "name": "Badeau",
    "city": "Hebi",
    "bikes": 22,
    "capacity": 155,
    "active": false,
    "lat": 35.748233,
    "lng": 114.297201
  },
  {
    "dockingId": 973,
    "name": "Welch",
    "city": "Dayou",
    "bikes": 93,
    "capacity": 159,
    "active": false,
    "lat": 26.141854,
    "lng": 116.188408
  },
  {
    "dockingId": 974,
    "name": "Badeau",
    "city": "Kuala Lumpur",
    "bikes": 107,
    "capacity": 187,
    "active": true,
    "lat": 3.1523104,
    "lng": 101.7178316
  },
  {
    "dockingId": 975,
    "name": "Bultman",
    "city": "Notranje Gorice",
    "bikes": 174,
    "capacity": 195,
    "active": true,
    "lat": 45.9865292,
    "lng": 14.3999988
  },
  {
    "dockingId": 976,
    "name": "Paget",
    "city": "Svatava",
    "bikes": 51,
    "capacity": 125,
    "active": true,
    "lat": 50.1922582,
    "lng": 12.6257516
  },
  {
    "dockingId": 977,
    "name": "Di Loreto",
    "city": "Salcedo",
    "bikes": 101,
    "capacity": 114,
    "active": true,
    "lat": 14.5560877,
    "lng": 121.0155081
  },
  {
    "dockingId": 978,
    "name": "Fulton",
    "city": "Quinocay",
    "bikes": 93,
    "capacity": 102,
    "active": false,
    "lat": -12.3625094,
    "lng": -76.2272716
  },
  {
    "dockingId": 979,
    "name": "Lawn",
    "city": "Pantenan",
    "bikes": 145,
    "capacity": 153,
    "active": false,
    "lat": -6.9158643,
    "lng": 112.4351068
  },
  {
    "dockingId": 980,
    "name": "Donald",
    "city": "Uvarovka",
    "bikes": 160,
    "capacity": 162,
    "active": false,
    "lat": 55.527934,
    "lng": 35.6160989
  },
  {
    "dockingId": 981,
    "name": "Merrick",
    "city": "Nurabelen",
    "bikes": 128,
    "capacity": 165,
    "active": false,
    "lat": -8.5181178,
    "lng": 122.8282569
  },
  {
    "dockingId": 982,
    "name": "Rowland",
    "city": "Donostia-San Sebastian",
    "bikes": 46,
    "capacity": 70,
    "active": false,
    "lat": 43.3152889,
    "lng": -1.9514657
  },
  {
    "dockingId": 983,
    "name": "Magdeline",
    "city": "Tallahassee",
    "bikes": 41,
    "capacity": 147,
    "active": false,
    "lat": 30.4649282,
    "lng": -84.3857442
  },
  {
    "dockingId": 984,
    "name": "Myrtle",
    "city": "Sumpur Kudus",
    "bikes": 93,
    "capacity": 198,
    "active": true,
    "lat": -0.4050276,
    "lng": 100.9354944
  },
  {
    "dockingId": 985,
    "name": "Pond",
    "city": "Cradock",
    "bikes": 72,
    "capacity": 126,
    "active": false,
    "lat": -33.8780645,
    "lng": 18.5748049
  },
  {
    "dockingId": 986,
    "name": "Jackson",
    "city": "Rizal",
    "bikes": 182,
    "capacity": 188,
    "active": true,
    "lat": 14.5665378,
    "lng": 121.1092186
  },
  {
    "dockingId": 990,
    "name": "Sullivan",
    "city": "Lila",
    "bikes": 110,
    "capacity": 163,
    "active": false,
    "lat": 9.600306,
    "lng": 124.105576
  },
  {
    "dockingId": 991,
    "name": "Lerdahl",
    "city": "Mergayu",
    "bikes": 175,
    "capacity": 179,
    "active": false,
    "lat": -8.1658601,
    "lng": 111.7763713
  },
  {
    "dockingId": 992,
    "name": "5th",
    "city": "Tarikolot",
    "bikes": 177,
    "capacity": 177,
    "active": false,
    "lat": -6.4991921,
    "lng": 106.8915948
  },
  {
    "dockingId": 993,
    "name": "Grim",
    "city": "Haoxin",
    "bikes": 90,
    "capacity": 103,
    "active": false,
    "lat": 23.1451405,
    "lng": 113.2558405
  },
  {
    "dockingId": 994,
    "name": "Westport",
    "city": "Karlskrona",
    "bikes": 85,
    "capacity": 116,
    "active": false,
    "lat": 56.1993557,
    "lng": 15.6309078
  },
  {
    "dockingId": 995,
    "name": "Kensington",
    "city": "Kasoa",
    "bikes": 192,
    "capacity": 200,
    "active": true,
    "lat": 5.5300711,
    "lng": -0.4408037
  },
  {
    "dockingId": 996,
    "name": "Namekagon",
    "city": "Karak",
    "bikes": 25,
    "capacity": 72,
    "active": true,
    "lat": 30.3301201,
    "lng": 66.9043672
  },
  {
    "dockingId": 997,
    "name": "Almo",
    "city": "Xianshuigu",
    "bikes": 58,
    "capacity": 70,
    "active": true,
    "lat": 38.979636,
    "lng": 117.395313
  },
  {
    "dockingId": 998,
    "name": "Crescent Oaks",
    "city": "Malinovskiy",
    "bikes": 180,
    "capacity": 182,
    "active": true,
    "lat": 61.2067486,
    "lng": 62.8101616
  },
  {
    "dockingId": 999,
    "name": "American Ash",
    "city": "Guifões",
    "bikes": 118,
    "capacity": 200,
    "active": true,
    "lat": 41.2007787,
    "lng": -8.6725287
  },
  {
    "dockingId": 1000,
    "name": "Amoth",
    "city": "Moussoro",
    "bikes": 189,
    "capacity": 197,
    "active": true,
    "lat": 13.648096,
    "lng": 16.493598
  },
  {
    "dockingId": 1001,
    "lat": 51.441262,
    "lng": 5.477672,
    "name": "Centrum Eindhoven",
    "city": "",
    "bikes": 124,
    "capacity": 260,
    "active": true
  },
  {
    "dockingId": 1002,
    "lat": 51.441851,
    "lng": 5.468059,
    "name": "Stadion Eindhoven",
    "city": "",
    "bikes": 86,
    "capacity": 215,
    "active": true
  },
  {
    "dockingId": 1003,
    "lat": 51.448966,
    "lng": 5.45733,
    "name": "Strijp-S Eindhoven",
    "city": "",
    "bikes": 37,
    "capacity": 297,
    "active": true
  },
  {
    "dockingId": 1004,
    "lat": 51.440791,
    "lng": 5.500513,
    "name": "Tongelre Eindhoven",
    "city": "",
    "bikes": 87,
    "capacity": 105,
    "active": true
  },
  {
    "dockingId": 1005,
    "lat": 51.417809,
    "lng": 5.450364,
    "name": "Gestel  Eindhoven",
    "city": "",
    "bikes": 137,
    "capacity": 184,
    "active": true
  },
  {
    "dockingId": 1006,
    "lat": 51.420344,
    "lng": 5.496238,
    "name": "Stratum  Eindhoven",
    "city": "",
    "bikes": 18,
    "capacity": 394,
    "active": true
  },
  {
    "dockingId": 1007,
    "lat": 51.461553,
    "lng": 5.472903,
    "name": "Woensel Zuid Eindhoven",
    "city": "",
    "bikes": 72,
    "capacity": 143,
    "active": true
  },
  {
    "dockingId": 1008,
    "lat": 51.482542,
    "lng": 5.481652,
    "name": "Woensel Noord Eindhoven",
    "city": "",
    "bikes": 37,
    "capacity": 104,
    "active": true
  }
]
